fas_id,name,address,postcode,easting,northing,latitude,longitude,local_authority
356313,The Bridge At Stanford,"The Bridge Hotel, Stanford Bridge, Worcester, Worcestershire",WR6 6RU,371705,265763,52.289266,-2.416247,Malvern Hills
131716,Woodford Wells Cricket and Lawn Tennis Club,"Monkhams Lane, Woodford Green",IG8 0NL,540514,192625,51.614923,0.028076,Redbridge
381366,Sun Inn,"Sun Inn, Burton Road, Monk Bretton",S71 2JS,436630,407830,53.56581,-1.448411,Barnsley
313685,Market House Inn,21 - 23 High Street Cullompton Devon,EX15 1AB,302099,107430,50.858066,-3.392319,Mid Devon
470152,Rising Sun Bar,37 Bridge Street Elgin Moray,IV30 4DE,321566,863392,57.653584,-3.315942,Moray
149329,Chaplains,"17-21 Front Street, Consett",DH8 5AB,410846,550732,54.851273,-1.832605,County Durham
169912,The Old Mill Inn,"Old Mill Inn, Dearham, Maryport, Cumbria",CA15 7JP,307782,536007,54.7106,-3.432845,Allerdale
419793,Fox & Hounds Restaurant & Bar,"672 Barnsley Road, Newmillerdam, Wakefield",WF2 6QQ,432961,415582,53.635727,-1.502989,Wakefield
498129,Red Lion Inn & Restaurant,"Red Lion, Rhos Road, Penyffordd, Flintshire",CH4 0JR,329874,361250,53.14376,-3.049861,Flintshire
411710,Marquis,"Low Stubbin, Rawmarsh, Rotherham",S62 7RX,442091,397780,53.475074,-1.367295,Rotherham
285789,Swan Public House,"Shooters Hill, Pangbourne, Reading, Berkshire",RG8 7DU,463215,176757,51.48624,-1.090984,West Berkshire
150013,Frosterley Inn,"99 Front Street, Frosterley, Bishop Auckland",DL13 2RH,402926,536937,54.727421,-1.95609,County Durham
250908,The Plough Inn & Attic Rooms,"The Plough Inn, High Street, Rusper, Horsham",RH12 4PX,520534,137321,51.122495,-0.279081,Horsham
505385,Penrhiw Inn,"Penrhiw Inn, Abercych, Boncath, Pembrokeshire",SA37 0HA,225024,240370,52.034062,-4.552268,Pembrokeshire
25501,The Brewery Tap,"The Brewery Tap, 22 Park Street, Luton",LU1 3ET,509417,221058,51.877357,-0.411917,Luton
422952,Sea Horses Hotel,"4 Fawcett Street, York",YO10 4AH,460750,451209,53.953418,-1.075757,York
214994,Union Club,"The Union Club, 107 Old Street, Ashton-Under-Lyne, Tameside",OL6 7RL,393755,398998,53.487656,-2.095585,Tameside
510232,Ynyshir and District Workmen's Club & Institute Limited,"100A Aber-Rhondda Road, Porth",CF39 0AU,302397,192184,51.619985,-3.411216,Rhondda Cynon Taf
448595,Talbot Arms,"30 Main Street, Milngavie",G62 6BU,255306,674210,55.939103,-4.318115,East Dunbartonshire
134838,Man of kent,"2, Nunhead Green, London",SE15 3QF,534981,175825,51.465307,-0.058224,Southwark
100699,Railway Hotel,"Railway Hotel, 390 Oldfield Lane North, Greenford",UB6 0AP,514870,184005,51.543262,-0.344936,Ealing
246823,The Leather Bottle,"54 The Street, Cobham, Kent",DA12 3BZ,567044,168446,51.39047,0.39948,Gravesham
443267,Ladies Golf Club,"12 Links Parade, Carnoustie",DD7 7JF,355832,734199,56.497777,-2.719027,Angus
484732,The Lennox Bar,"137 High Street, Dumbarton",G82 1LE,239432,675276,55.94363,-4.572617,West Dunbartonshire
451965,JUNIPER GREEN BOWLING CLUB,600 Lanark Road,EH14 5EN,319536,668437,55.902303,-3.288487,City of Edinburgh
302723,Coast B & B & The Bean Inn,"Coast Bed And Breakfast, St Ives Road, Carbis Bay, St Ives",TR26 2RT,152450,38588,50.195435,-5.469883,Cornwall
418440,The Ball Inn,"The Ball Inn, 43 Mansfield Road, Sheffield",S12 2AG,438738,384789,53.358558,-1.419416,Sheffield
204432,Masons Arms,"254 Burnley Road East, Waterfoot, Rossendale, Lancashire",BB4 9HU,383603,422713,53.70059,-2.249838,Rossendale
93923,The Court,"108A      Tottenham Court Road, London",W1T 5AA,529344,182097,51.522987,-0.13703,Camden
502460,Oakwood Inn,"Oakwood Inn, Church Square, Cwmavon, Neath Port Talbot",SA12 9AP,278080,191980,51.613405,-3.762229,Neath Port Talbot
3984,Oaklands Inn,"Notley Green, Great Notley, Braintree, Essex",CM77 7US,573853,220761,51.858354,0.523189,Braintree
514192,Gwersyllt & Bradley Sports Club,"Gwersyllt & Bradley Sports Club, The Park Sports Assoc., Heol Y Parc, Bradley",LL11 4DX,332139,354004,53.078929,-3.014469,Wrexham
175387,Sportsman,"254 Darwen Road, Bromley Cross, Bolton",BL7 9JG,372175,413463,53.616966,-2.422099,Bolton
202158,De Lacy Arms,"61 King Street, Whalley, Clitheroe, Lancashire",BB7 9SP,373316,436085,53.820349,-2.40681,Ribble Valley
390823,St Albans Catholic Club,"St Albans Roman Catholic Church, Wadworth Street, Denaby Main, Doncaster",DN12 4AQ,450227,399441,53.489291,-1.244475,Doncaster
333820,NAGS HEAD,"The Nags Head, Silver Street, Lyme Regis, Dorset",DT7 3HS,333804,92290,50.726442,-2.93921,West Dorset
456075,Burns Tavern,184 High Street Leslie Glenrothes Fife,KY6 3DB,325208,701806,56.202951,-3.207123,Fife
255659,Kings Head Hotel,"58 High Street, Rochester, Kent",ME1 1LD,574257,168653,51.390163,0.503147,Medway
378850,Pillar Of Salt,"Celvestune Way, Droitwich Spa, Worcestershire",WR9 8UA,388720,262044,52.256448,-2.16667,Wychavon
464044,The Real McCoy,"1281 London Road, Glasgow",G40 3HW,262183,663842,55.84803,-4.202826,Glasgow City
482551,The Hay Stook,"30-36 Princes mall, Town Centre, east Kilbride",G74 1JU,263541,654097,55.760921,-4.176263,South Lanarkshire
361775,The Scott Arms,"The Scott Arms, Newton Road, Great Barr",B43 6BN,404546,294182,52.545472,-1.934395,Sandwell
70610,The Three Horseshoes,"49 Market Street, Clay Cross, Chesterfield",S45 9JE,439238,363435,53.166603,-1.414544,North East Derbyshire
162943,The Pilot Inn,"31 Low Greens, Berwick-Upon-Tweed, Northumberland",TD15 1LZ,399796,653445,55.774336,-2.004823,Northumberland
247628,The Plough,"Plough Inn Orestan Lane, Effingham, Surrey",KT24 5SW,511619,153840,51.272779,-0.401294,Guildford
495689,Llanfairfechan Sailing Club,"Llanfairfechan Sailing Club, Promenade, Llanfairfechan",LL33 0BY,268002,375396,53.259096,-3.980258,Conwy
511132,Midland Hotel,"115 Clydach Road, Morriston",SA6 6QB,267303,198675,51.671128,-3.920341,Swansea
349428,Stag And Pheasant,"13 Lockhurst Lane, Coventry",CV6 5PD,433865,281222,52.427938,-1.50338,Coventry
4359,The Victory Inn,"The Green, Wickham St Paul, Halstead, Essex",CO9 2PT,583177,236370,51.99556,0.666733,Braintree
319307,The Quay,"21 The Quay, Poole, Dorset",BH15 1HJ,401055,90296,50.712287,-1.986433,Poole
115806,The Old Crown,"The Old Crown, 81 Station Road, Hayes",UB3 4BG,509818,179639,51.505025,-0.419116,Hillingdon
45944,Inn The Middle,125 Station Road Langley Mill Heanor Derbyshire,NG16 4DU,444734,346988,53.018329,-1.334609,Amber Valley
26815,The Bramford Cock,"Cock Inn, The Street, Bramford, IPSWICH",IP8 4DU,612344,246464,52.075802,1.097214,Mid Suffolk
376579,McGhee's Irish Bar,"Mcghees Irish Bar, Wheelers Fold, Wolverhampton, West Midlands",WV1 1HN,391512,298717,52.58619,-2.126712,Wolverhampton
54733,Derby Deaf Club,"Rycote Centre, Parker Street, Derby",DE1 3HF,434683,336950,52.928843,-1.485502,Derby
493583,THE BEE HIVE INN,"Bee Hive Inn, Pencader, Carmarthenshire",SA39 9AA,244669,236419,52.004414,-4.26434,Carmarthenshire
6585,Dog Public House (wet sales only),"65 Holt Road, Horsford",NR10 3DF,619430,315638,52.69394,1.245703,Broadland
749,The Greyhound,"High Street, Lavenham, SUDBURY, Suffolk",CO10 9PZ,591533,249254,52.10844,0.795509,Babergh
228220,Mendoza,"30 High Street, Aylesbury, Buckinghamshire",HP20 1SF,482105,213806,51.816862,-0.810287,Aylesbury Vale
194180,Baltic Cellar,"20 Lloyd Street, Manchester",M2 5WA,383717,398054,53.478963,-2.246815,Manchester
38903,The Standing Order,"The Standing Order, 33 High Street, Stevenage, Herts",SG1 3AS,523360,225061,51.910432,-0.208025,Stevenage
390487,Pilkington Club,"Pilkingtons Social Club, Doncaster Road, Kirk Sandall, Doncaster",DN3 1HP,461541,407542,53.560897,-1.072375,Doncaster
158065,Scotswood Social Club,"Denton Road, Newcastle upon Tyne",NE15 7HB,419730,564798,54.977404,-1.693283,Newcastle upon Tyne
86485,Arcadia Lounge Bar,"247 Broadway, Bexleyheath, Kent",DA6 8DB,548624,175331,51.457454,0.137831,Bexley
75362,Lincolnshire Poacher,"The Lincolnshire Poacher, 161-163 Mansfield Road, Nottingham",NG1 3FR,457105,340860,52.962076,-1.151297,Nottingham
303065,Dynamite Bar,"Two Dragons Bar, St Ives Bay Holiday Park, Loggans Road, Hayle",TR27 5BH,157454,39022,50.201404,-5.400165,Cornwall
507526,Penrhos Kitchen,"Penrhos Social Club, 329 Brecon Road, Ystradgynlais, Swansea",SA9 1QX,279841,211180,51.786343,-3.74343,Powys
81763,The Old Red Lion,"4 Banbury Road, Litchborough, Northamptonshire",NN12 8JF,463077,254160,52.182102,-1.078872,South Northamptonshire
456949,Glen Tavern,112 Pittencrieff Street Dunfermline Fife,KY12 8AN,308523,687520,56.071724,-3.471059,Fife
246813,The Grapes Bar Cafe,"153 Milton Road, Gravesend, Kent",DA12 2RG,564944,174072,51.441627,0.371941,Gravesham
369613,The Roebuck,"The Roebuck Hotel, Wedgwood Place, Burslem, Stoke-On-Trent",ST6 4ED,386840,349959,53.046731,-2.197752,Stoke-on-Trent
211394,Sefton Arms,"Sefton Arms, 1-7 Baldwin Street, St Helens, Merseyside",WA10 2RS,351032,395549,53.454398,-2.738881,St. Helens
101149,The Brogue,"7 Boston Parade, Boston Road, Hanwell",W7 2DG,516321,178881,51.496913,-0.325712,Ealing
504280,Bridgend Inn,"Bridgend Inn, 15 Bridgend Square, Haverfordwest, Pembrokeshire",SA61 2ND,195553,215940,51.80462,-4.966816,Pembrokeshire
339239,The Smoking Dog,"62 High Street, Malmesbury, Wiltshire",SN16 9AT,393391,186985,51.581684,-2.096774,Wiltshire
371488,The Gate Inn,"Tamworth Road, Amington, Tamworth",B77 3BY,422764,304167,52.63478,-1.665072,Tamworth
386883,Navigation Inn,"47 Chapel Lane, Sowerby Bridge",HX6 3LF,406702,423647,53.709205,-1.899944,Calderdale
260228,The Royal Oak,"The Royal Oak (Ph), Brockham Green, Brockham",RH3 7JS,519786,149594,51.232969,-0.285677,Mole Valley
345289,The Bell,"The Bell, 11 Old Church Road, Birmingham",B17 0BB,402822,283997,52.45392,-1.9599,Birmingham
472380,Dragon's Den (Dalziel Rugby Club),"Hagen Drive, Motherwell, Lanarkshire",ML1 5RZ,278337,657851,55.79858,-3.942304,North Lanarkshire
173165,Rose & Crown,"22-24 Corporation Street, Blackpool",FY1 1EJ,330727,436230,53.817721,-3.053682,Blackpool
203915,The Fair View Inn,"Fair View Inn, Broad Lane, Rochdale, Lancashire",OL16 4QQ,391822,410432,53.590411,-2.12502,Rochdale
166598,The Black Bull,"40-42 High Street, Yarm",TS15 9BH,441895,512771,54.508526,-1.354481,Stockton-on-Tees
192478,O2 Academy,"11-13 Hotham Street, LIVERPOOL, Merseyside",L3 5UF,335143,390703,53.409136,-2.977121,Liverpool
270902,Chalvey Working Mens Club,"Chalvey Working Mens Club, High Street, Chalvey",SL1 2SQ,496718,179494,51.506113,-0.607839,Slough
281341,The Castle Inn,"Crook Road, Brenchley, Tonbridge, Kent",TN12 7BN,569081,142363,51.155544,0.416401,Tunbridge Wells
440186,KRAKATOA,"2 Trinity Quay, Aberdeen",AB11 5AA,394336,806117,57.145905,-2.095241,Aberdeen City
284697,The White Hart,"Station Road, Buxted, East Sussex",TN22 4DP,549396,123302,50.989729,0.127268,Wealden
323214,Church House Inn,"Church House Inn, Acces To Church House Inn, Rattery",TQ10 9LD,274007,61546,50.440197,-3.775637,South Hams
107150,Scenario,"The Hare And Hounds, 97 Stoke Newington Road, Hackney, London",N16 8BX,533553,185735,51.554701,-0.075018,Hackney
441480,Deja Vu Nightclub,"28 Queen Street, Peterhead, Aberdeenshire",AB42 1TS,413328,846267,57.506407,-1.77922,Aberdeenshire
355479,Ring 'O' Bells,"80 Chorley Road, Chase Terrace, Burntwood",WS7 2NX,404777,310344,52.690771,-1.930761,Lichfield
267408,Rye Literary Institute,"Rye Club, Market Road, Rye, East Sussex",TN31 7JA,592020,120413,50.951161,0.732407,Rother
14447,Tring Squash Rackets Club,"Squash Club, Cow Lane, Tring, Herts",HP23 5NS,493595,211838,51.797369,-0.644176,Dacorum
303831,Lanivet Inn,"Truro Road, Lanivet, Bodmin, Cornwall",PL30 5ET,203740,64284,50.445496,-4.765595,Cornwall
333295,BLUE VINNEY,"The Blue Vinny, 12 The Moor, Puddletown, Dorset",DT2 8TE,375667,94703,50.751412,-2.346301,West Dorset
410081,The Grosvenor,"The Clansman, Old Crosby, Scunthorpe, North Lincolnshire",DN15 8PY,489186,412127,53.598144,-0.653834,North Lincolnshire
367062,The Shropshire Inn,"Shropshire Inn, Newport Road, Haughton, Stafford",ST18 9HB,386298,320637,52.783134,-2.204589,Stafford
252610,The Prince Of Wales,"Prince Of Wales, 36 South Street, Newport",PO30 1JE,449981,89051,50.698971,-1.293658,Isle of Wight
259324,The Lamb Inn,"20 High Street, Stoke Goldington, Milton Keynes",MK16 8NR,483790,248753,52.13074,-0.777329,Milton Keynes
485360,Linlithgow Rugby Football Club,"Mains Road, Linlithgow, West Lothian",EH49 6DB,299206,676804,55.973609,-3.616634,West Lothian
157796,Peacock Inn,"The Peacock Inn, Arlington Avenue, Newcastle upon Tyne",NE3 4TS,422860,567228,54.999107,-1.644189,Newcastle upon Tyne
266605,The Old Chestnut,"12 Station Approach West, Redhill, Surrey",RH1 6HP,527785,149188,51.227578,-0.171312,Reigate and Banstead
309363,TAP AND RAILWAY,"195 Station Road, West Moors, Dorset",BH22 0HX,407865,102968,50.826199,-1.889699,East Dorset
199917,West Indian Sports & Social,"13 Primrose Bank, Oldham, Oldham",OL8 1HQ,392368,404287,53.535168,-2.116634,Oldham
348081,Coach and Horses,"Longford Road, Coventry",CV6 6BG,435034,283858,52.451562,-1.485913,Coventry
385211,The Harold Club (Bar Only),"Huddersfield Road, Bradford",BD12 0UD,415371,428464,53.752319,-1.768374,Bradford
443052,Craws Nest,"The Craws Nest, 71 Ravensby Park Gardens, Carnoustie",DD7 7NY,354352,734515,56.500483,-2.74312,Angus
342198,Heathway Public House,"The Heathway, Heathland Avenue, Birmingham",B34 6LS,414259,289192,52.500447,-1.79138,Birmingham
440405,OLD SCHOOL HOUSE,"Little Belmont Street, Aberdeen",AB10 1JG,394010,806218,57.146808,-2.100615,Aberdeen City
325476,The Square and Compass Inn,"Windmill Hill, Ashill, Ilminster, Somerset",TA19 9NX,330983,116546,50.944203,-2.983747,South Somerset
344167,Quinton Members Club,"415 West Boulevard, Quinton, Birmingham",B32 2PP,401401,283969,52.453674,-1.98081,Birmingham
141066,The Northcote,"110 Grove Green Road, Leytonstone",E11 4EL,538645,186513,51.560474,-0.001312,Waltham Forest
190612,Bar Coast,"90-92 Regent Road, LIVERPOOL, Merseyside",L5 9TD,333767,392757,53.427415,-2.998264,Liverpool
40168,Brewers Arms,"1 Victoria Place, Brightlingsea, Essex",CO7 0BX,608584,216761,51.810552,1.024428,Tendring
16644,Epping Golf Course,"Fluxs Lane, Epping, Essex",CM16 7NJ,546511,200837,51.687181,0.118067,Epping Forest
509872,The Carne Park Hotel,"Park Street, Abercynon, Mountain Ash",CF45 4PF,307850,194528,51.641975,-3.333091,Rhondda Cynon Taf
321888,Kendleshire Golf Club,"Henfield Road, Coalpit Heath, South Gloucestershire",BS36 2XG,367504,179256,51.511289,-2.469664,South Gloucestershire
248530,Comet Pub,"72 Harley Shute Road, St Leonards-on-sea, East Sussex",TN38 8BU,578139,109251,50.85534,0.529556,Hastings
387638,The Wellington Inn,"66 Rochdale Road, Halifax",HX2 7HB,407428,424283,53.714921,-1.88893,Calderdale
357883,The Cottage Inn,"Black Hall Lane, Fillongley, Coventry",CV7 8EG,427680,287750,52.48697,-1.593799,North Warwickshire
49345,Palterton Miners Welfare,"Back Lane, Palterton, Chesterfield",S44 6UN,447536,368436,53.21087,-1.289675,Bolsover
10755,Toddington Social & Services Club,"15 High Street, Toddington, Dunstable",LU5 6BX,500933,228575,51.946516,-0.532918,Central Bedfordshire
94573,Be At One,"100 Fenchurch Street, London",EC3M 5JD,533422,181079,51.512891,-0.078669,City of London
264762,Butchers Arms,"9 Lower Armour Road, Tilehurst, Reading",RG31 6HH,466911,174338,51.464068,-1.038206,Reading
61772,Bulls Head Inn,"78 Old Road, Tintwistle",SK13 1JY,402297,397386,53.473201,-1.966862,High Peak
398709,Tofts,"64-70 Newland Avenue, Hull",HU5 3AB,508306,430824,53.76252,-0.358522,"Kingston upon Hull, City of"
119267,The Joker of Penton Street pub only,"The Joker of Penton Street pub only, Ground Floor, 58 Penton Street, Islington",N1 9PZ,531102,183304,51.533428,-0.111255,Islington
252197,Ryde Rowing Club,"Ryde Rowing Club, Appley Lane, Ryde",PO33 1ND,460547,92408,50.728137,-1.143517,Isle of Wight
278774,Imperial Lounge,"2A High Street, Margate, Kent",CT9 1AT,635262,171009,51.389324,1.380084,Thanet
347498,The Lamb & Flag,"The Flaggin Lamb, 70 John Street, Wimblebury, Cannock",WS12 2RJ,401595,311466,52.700857,-1.977833,Cannock Chase
101216,The Kings Arms,"Kings Arms, 110 Uxbridge Road, Hanwell",W7 3SU,515524,180166,51.508625,-0.336767,Ealing
486387,The Mariners,"The Mariner Inn, 4 Salem Street, Amlwch, Isle Of Anglesey",LL68 9BP,244260,392806,53.409017,-4.34444,Isle of Anglesey
497715,Flint Golf Club,"Cornist Drive, Flint, Flintshire",CH6 5HJ,323686,372626,53.245136,-3.145076,Flintshire
80302,Houblon Arms,"Houblon Arms Inn, Village Street, Oasby, Lincolnshire",NG32 3NB,500368,339038,52.939362,-0.507955,South Kesteven
241791,The Good Intent,"The Good Intent, 46 College Street, Petersfield, GU31 4AF",GU31 4AF,474889,123546,51.006444,-0.933985,East Hampshire
47307,The Summit Centre,"Summit Centre, Pavilion Road",NG17 7LL,450660,356664,53.104782,-1.24476,Ashfield
359935,The Rupert Brooke,"The Rupert Brooke, 8-10 Castle Street, Rugby",CV21 2TP,450525,275276,52.373196,-1.259278,Rugby
335230,William Henry,"William Henry Ph, 1 Frederick Place, St Thomas Street",DT4 8HQ,367934,79165,50.61131,-2.454547,Weymouth and Portland
367056,The Royal Oak,"High Street, Church Eaton, Staffordshire",ST20 0AJ,384462,317384,52.753842,-2.231654,Stafford
242336,Hungry Horse,"Willingdon Drove, Eastbourne, East Sussex",BN23 8AL,561865,102792,50.802075,0.295687,Eastbourne
419959,Hightown Pub,"The Hightown Hotel, Lumley Street, Castleford",WF10 5LB,441993,425220,53.721704,-1.365086,Wakefield
180350,The Dog,"Dog Inn, Well Bank Lane, Over Peover",WA16 8UP,379348,373536,53.25842,-2.311033,Cheshire East
167613,GUIDE POST,"RYHOPE STREET SOUTH, SUNDERLAND",SR2 0RN,440727,553063,54.870688,-1.366911,Sunderland
92458,George IV,"76      Willes Road, London, Greater London",NW5 3DL,528723,184909,51.548399,-0.144949,Camden
418259,Tank Nightclub,"53-55 Arundel Gate, Sheffield",S1 2PN,435641,387410,53.382341,-1.465652,Sheffield
388132,Ghyll Golf Club,"Ghyll Golf Club, Skipton Road, Barnoldswick",BB18 6JH,389297,448216,53.929958,-2.16449,Pendle
69563,Plough Inn,"Main Street, Norwell, Newark On Trent, Nottinghamshire",NG23 6JN,477227,361777,53.147547,-0.84678,Newark and Sherwood
19194,MB Funhouse,"Beach Road, Hemsby, Great Yarmouth",NR29 4HS,650397,317338,52.695765,1.704268,Great Yarmouth
441261,BUCHANHAVEN HEARTS F.C.,"17 Victoria Road, Peterhead, Aberdeenshire",AB42 1UB,413007,846709,57.510386,-1.78457,Aberdeenshire
183748,Winnington Park Recreation Club,"Park Road, Northwich, Cheshire",CW8 4EB,364613,374299,53.264498,-2.531989,Cheshire West and Chester
205852,On the 7th,"'within Media Enterprise Centre', Blue, Media City",M50 2ST,380209,397286,53.47193,-2.299623,Salford
161180,Hadrian Hotel,"Front Street, Wall, Northumberland",NE46 4EE,391609,569075,55.016151,-2.132758,Northumberland
211142,Lillies,"21-23 Westfield Street, St Helens",WA10 1QA,350959,395427,53.453295,-2.739961,St. Helens
156205,The Southfield,18 Southfield Road,TS1 3BZ,449569,519786,54.570872,-1.234795,Middlesbrough
473869,Tannochside Olde Club,"416 Old Edinburgh Road, Uddingston, Glasgow, Lanarkshire",G71 6PJ,270314,661492,55.829185,-4.071931,North Lanarkshire
501664,The Carpenters Arms,"Usk Road, Shirenewton, Monmouthshire",NP16 6BU,348015,194392,51.645909,-2.752706,Monmouthshire
343438,Moseley All Services Club,"Moseley All Services Club, 91 Church Road, Moseley And Kings Heath, Birmingham",B13 9EA,408042,283254,52.44719,-1.883103,Birmingham
489177,The Court House,"Cardiff Road, Caerphilly",CF83 1FN,315513,186862,51.574269,-3.220529,Caerphilly
68330,The Bold Forester,"Botany Avenue, Mansfield, Nottinghamshire",NG18 5NE,452814,360975,53.143313,-1.211882,Mansfield
481163,Doctor Gormans,"33 Queen Street, Rutherglen, Glasgow",G73 1JP,261256,661776,55.829206,-4.216563,South Lanarkshire
401503,Shoulder of Mutton Inn,"59 Lee Green, Mirfield",WF14 0AE,420503,420936,53.684482,-1.691042,Kirklees
491813,The Gate Keeper,"The Gatekeeper, 9 Westgate Street, City Centre, Cardiff,",CF10 1DD,318057,176340,51.480057,-3.181376,Cardiff
143699,Bayswater Arms,"99 Queensway, London",W2 4QH,525844,180800,51.512121,-0.187914,Westminster
133614,British queen,"34, Picton Street, London",SE5 7QH,532819,177190,51.478076,-0.088817,Southwark
88323,Everest Spice The Honeypot,"Everest Spice The Honeypot, Honeypot Lane, Stanmore",HA7 1EE,518529,189710,51.593778,-0.290275,Harrow
232908,Space And Thyme At East Street Tap,"74 East Street, Brighton",BN1 1HQ,531177,103968,50.820408,-0.139106,Brighton and Hove
68836,The Cutting Room,"2 St Marys Way, Melton Mowbray",LE13 1YE,475279,319261,52.765712,-0.885764,Melton
90145,Conservative Club,"55 Croydon Road, Penge, London",SE20 7TG,535387,169830,51.411328,-0.054673,Bromley
290232,Royal British Legion Soc Club,"The Royal British Legion, Woodward Close, Winnersh",RG41 5LP,478845,170367,51.426836,-0.867333,Wokingham
421276,The Rising Sun,"Whitwood Common Lane, Castleford",WF10 5PT,440586,424273,53.713295,-1.386546,Wakefield
223663,The Clairville,"48 Wallasey Road, Liscard, Wirral, Merseyside",CH45 4NW,330479,391951,53.419748,-3.047546,Wirral
413842,Honeypot Inn,"Flamborough Road, Speeton, Filey, North Yorkshire",YO14 9TA,514041,474592,54.154491,-0.255225,Scarborough
326705,Woolpack Inn,"4 High Street, Stonehouse, Gloucestershire",GL10 2NA,380531,205411,51.747054,-2.2834,Stroud
41167,Rose And Crown Public House,"Common Road, Chorleywood, Hertfordshire",WD3 5LW,502673,196274,51.655888,-0.517166,Three Rivers
202126,Clitheroe Golf Club,"Clitheroe Golf Club, Whalley Road, Pendleton, Clitheroe",BB7 1PP,373968,439713,53.852989,-2.397215,Ribble Valley
129606,Streeties P H,"15 Shirley Street, Canning Town, London",E16 1HU,539728,181258,51.512967,0.012216,Newham
300133,The Love Inn,"84 Stokes Croft, St Pauls, Bristol",BS1 3QY,359132,173928,51.462839,-2.589663,"Bristol, City of"
70191,George & Dragon,"175 High Street, Clay Cross, Chesterfield",S45 9DZ,439140,363352,53.165864,-1.416005,North East Derbyshire
237447,The Three Crowns,Billingshurst Road Wisborough Green Billingshurst West Sussex,RH14 0DX,505052,125922,51.023083,-0.503522,Chichester
52233,The Swan Inn,"The Swan Inn, 10 Loughborough Road, Mountsorrel",LE12 7AT,457987,315243,52.731716,-1.142713,Charnwood
186638,Ship Inn,"Ship Inn, Bunker Street, Freckleton",PR4 1HA,343447,428749,53.752032,-2.859127,Fylde
400176,Huddersfield Bridge Club,"4-6 Cambridge Road, Huddersfield",HD1 5BU,414145,417320,53.652191,-1.787471,Kirklees
194878,Cleveland Hotel,"Cleveland Hotel, Crumpsall Lane, Manchester",M8 5SR,384252,402384,53.51789,-2.238973,Manchester
487618,Maesteg RFC,"Old Parish Ground, Llynfi Road, Maesteg, Maesteg, Bridgend County Borou",CF34 9DS,285016,191448,51.610085,-3.661928,Bridgend
377594,Black Cherry,"57-59 Lowesmoor, Worcester",WR1 2RS,385249,255239,52.195187,-2.217221,Worcester
505340,Pembroke Yeoman,"The Pembroke Yeoman, 11 Hill Street, Haverfordwest, Pembrokeshire",SA61 1QQ,195209,215434,51.799951,-4.971499,Pembrokeshire
127875,The Edward Rayne Public House,"8 Coombe Lane, Raynes Park, London",SW20 8ND,523265,169348,51.409767,-0.229047,Merton
421376,Travellers Rest,"Public House, Pontefract Road, Featherstone, Pontefract",WF7 5AP,442933,419918,53.673976,-1.351589,Wakefield
444000,Dunoon Argyll Bowling Club,Dunoon Argyll Bowling Club 66 Mary Street Dunoon Argyll And Bute PA23 7EG,PA23 7EG,216842,676688,55.948213,-4.934788,Argyll and Bute
283367,The Swan Inn,"The Swan, Petworth Road, Chiddingfold, Godalming",GU8 4TY,496074,135328,51.109207,-0.628996,Waverley
350176,Bush Inn,"52 Summit Place, Lower Gornal, Dudley",DY3 2TG,390890,291001,52.516805,-2.135677,Dudley
479432,Caprice,112 Main Street Prestwick South Ayrshire,KA9 1PB,235057,625690,55.497082,-4.612683,South Ayrshire
120571,Pig and Whistle Kitchen,"92-94 Bramley Road, LONDON, W10 6UG",W10 6UG,523788,180955,51.513967,-0.217471,Kensington and Chelsea
6292,The Rose,"The Rose Inn, Chelmsford Road, Shenfield, Essex",CM15 8RN,561084,195730,51.637313,0.326353,Brentwood
337695,North Wilts Golf Club,"Bishops Cannings, Devizes, Wiltshire",SN10 2LP,402255,166733,51.399634,-1.968971,Wiltshire
239825,The Malt Shovel,"3 Darenth Road, Dartford, Kent",DA1 1LP,554561,173956,51.443511,0.222617,Dartford
313748,Redwoods Inn,Lowman Cross  Uplowman Devon,EX16 7DP,273244,94079,50.73246,-3.797492,Mid Devon
513948,Cefn Mawr Community Social Club,"Cefn Mawr Community Social Club, Cae Gwilym Lane, Cefn Mawr, Wrexham",LL14 3PE,328245,341603,52.966974,-3.069826,Wrexham
329887,South Devon Inn,South Devon Inn Strand Hill Dawlish Devon,EX7 9HR,296261,76783,50.581539,-3.466607,Teignbridge
135478,Ship & whale public house,"2, Gulliver Street, London",SE16 7LT,536495,179380,51.496891,-0.035084,Southwark
184902,King George IV,"King George Iv Inn, Eskdale, Cumbria",CA19 1TS,314869,499815,54.386677,-3.312396,Copeland
373982,Royal Exchange,"27 Lichfield Road, Walsall Wood, Walsall, West Midlands",WS9 9NP,404987,303566,52.629827,-1.927753,Walsall
95661,"Quarter Jacks, Grange St Pauls Hotel","10 Godliman Street, London",EC4V 5AJ,531982,181025,51.512744,-0.099429,City of London
439532,BRIDGE BAR,"6 Bridge Street, Aberdeen",AB11 6JJ,393939,806005,57.144903,-2.101799,Aberdeen City
169688,Seaton Rugby Club,"High Seaton Village, Seaton, Workington, Cumbria",CA14 1NP,301847,530804,54.662726,-3.523191,Allerdale
443240,Kerrymore Tavern,"66 Glamis Road, Kirriemuir",DD8 5DD,338533,753399,56.668313,-3.004538,Angus
421553,127 Micklegate,"127A Micklegate, York",YO1 6LB,459799,451507,53.956206,-1.090188,York
512308,Llanyravon Social Centre,"Llanyravon Social Centre, Llanyravon Way, Llanyravon, Cwmbran",NP44 8HP,330345,194728,51.647014,-3.00811,Torfaen
226175,SEASONS,"FOOTBALL GROUND, NYEWOOD LANE, BOGNOR REGIS",PO21 2TY,492616,99354,50.786371,-0.687516,Arun
463264,Springburn Bar,"361 Edgefauld Road, Glasgow",G21 4JY,261126,667678,55.882167,-4.22166,Glasgow City
361728,The Model,"The Model Inn, 2 Titford Road, Oldbury",B69 4PY,399133,288300,52.49261,-2.014198,Sandwell
270733,Varne Boat Club,"Coast Drive, Greatstone, Kent",TN28 8NR,608208,123676,50.974848,0.964423,Shepway
379782,The Horn & Trumpet,"15-16 Dog Lane, Bewdley, Worcestershire",DY12 2EH,378476,275348,52.375754,-2.317599,Wyre Forest
310192,Sorry Head (Horse & Dray),"10 Blackboy Road, Exeter, Devon",EX4 6SG,292846,93302,50.729421,-3.51961,Exeter
23182,Brancaster 71 Club,"Village Hall, Main Road, Brancaster, King's Lynn",PE31 8AP,577412,343877,52.9629,0.640052,King's Lynn and West Norfolk
373876,Plough & Harrow,"770 Chester Road, Walsall, West Midlands",WS9 0LR,407828,301483,52.611069,-1.885829,Walsall
199671,Tara Sports & Leisure Club (2 Snooker Hall),"(2) Tara Sports & Leisure Ltd, Grains Road, Shaw, Oldham",OL2 8JB,394491,409149,53.578906,-2.084676,Oldham
71413,The Green Man,"Main Street, Norton Disney",LN6 9UU,489241,362073,53.148333,-0.667118,North Kesteven
464427,Whistlin Kirk,"5 Greendyke Street, Glasgow",G1 5PU,259532,664632,55.854358,-4.245541,Glasgow City
109412,The White Horse,"White Horse, 31 Uxbridge Road, London",W12 8LH,523108,180005,51.505578,-0.227611,Hammersmith and Fulham
58938,Irthlingborough Working Mens Club \\& Institute Society Ltd,"1 Scarborough Street, Irthlingborough, Wellingborough, Northamptonshire",NN9 5TT,494362,270728,52.326553,-0.616804,East Northamptonshire
396521,The Claro Beagle,"Coppice Gate, Harrogate, North Yorkshire",HG1 2DR,429773,456355,54.00237,-1.547256,Harrogate
245609,The Cob And Pen,"The Cob And Pen, 1 Wallington Shore Road, Fareham",PO16 8SL,458425,106711,50.85697,-1.171309,Fareham
315995,Swan Inn,"Market Place, Sturminster Newton, Dorset",DT10 1AR,378675,114127,50.926198,-2.304785,North Dorset
335671,Bridge Inn,"Church Street, West Lavington, Devizes, Wiltshire",SN10 4LD,400718,152955,51.275741,-1.991103,Wiltshire
351520,Samson And Lion Public House,"138-140 Brierley Hill Road, Wordsley, Stourbridge",DY8 5SP,389913,286874,52.479695,-2.149948,Dudley
24913,Enterprise Public House,"The Enterprise, 20 Elizabeth Street, Luton",LU1 5BN,508945,220836,51.875462,-0.41884,Luton
182311,Malpas And District Sports Club Ltd,"Malpas Sports Club, Church Street, Malpas, Cheshire",SY14 8NU,348690,347201,53.019641,-2.766341,Cheshire West and Chester
160156,Ashington and District Comrades Social Club,"179-185 North Seaton Road, Ashington, Northumberland",NE63 0ED,427618,587087,55.177324,-1.567896,Northumberland
498060,Pen Y Bont Farm,"Chester Road, Mold, Flintshire",CH7 1UJ,324541,363823,53.166154,-3.130181,Flintshire
310335,The Hourglass,"21 Melbourne Street, Exeter, Devon",EX2 4AU,292309,92014,50.717744,-3.52684,Exeter
196590,Northenden Golf Club,"Palatine Road, Manchester",M22 4FR,383117,390561,53.411585,-2.255436,Manchester
328794,The Blue Ball,"Blue Ball Inn, Sampford Moor, Wellington",TA21 9QL,311137,117916,50.953798,-3.266501,Taunton Deane
56251,Co-operative Group Food Limited,"Co-Operative Food Store, Calver Road, Baslow, Derbyshire",DE45 1RP,425094,372482,53.248756,-1.625382,Derbyshire Dales
476590,Linwood Bowling Club,"71 Napier Street, Linwood, Paisley, Renfrewshire",PA3 3AJ,244351,664612,55.849516,-4.487785,Renfrewshire
192558,Paradise Gentlemens Club,"25 Stanley Street, LIVERPOOL, Merseyside",L1 6AA,334457,390557,53.407739,-2.987409,Liverpool
254821,The Redstart,"The Redstart Public House, 70 North Street, Barming, Kent",ME16 9HF,572528,154739,51.265696,0.47159,Maidstone
283557,Boars Head Golf Centre Ltd,"Boars Head Golf Club, Eridge Road, Boars Head, East Sussex",TN6 3HD,553282,132293,51.069507,0.186393,Wealden
209346,Last Orders,"Cask House, Allhallows Lane, Kendal",LA9 4JH,351404,492630,54.326906,-2.748719,South Lakeland
322862,The Swan,"Badminton Road, Yate, South Gloucestershire",BS37 5JF,369257,182312,51.538864,-2.444658,South Gloucestershire
312585,George Inn,"Long Street, Croscombe, Wells",BA5 3QH,358872,144351,51.196886,-2.589981,Mendip
346703,The Guild,"Birmingham Road, Bromsgrove, Worcestershire",B61 0BA,396737,271195,52.338817,-2.049314,Bromsgrove
452048,Kirkliston Bowling Club,"Bowling Green Road, Kirkliston",EH29 9BG,312587,674470,55.95527,-3.401546,City of Edinburgh
399024,Bar Chaos,"14 Kirkgate, Huddersfield",HD1 1QH,414546,416714,53.646742,-1.781432,Kirklees
369596,The Post Office Vaults,"3 Market Place, Burslem, Stoke-on-Trent",ST6 3AA,386874,349815,53.045437,-2.197239,Stoke-on-Trent
307132,Moreton In Marsh Cricket Club,"Moreton Cricket Club, Sports Pavilion, Batsford Road, Moreton-In-Marsh",GL56 0AB,420547,232831,51.993551,-1.702162,Cotswold
76028,Rose Inn,"Rose Inn, Moor Road, Nottingham",NG8 6NH,451980,342121,52.97393,-1.227385,Nottingham
300715,21 Club,"The 21 Club, Regent Street, Cheltenham, Gloucestershire",GL50 1HE,394912,222321,51.89941,-2.075352,Cheltenham
103601,Anglesea Arms,"91 Woolwich New Road, London",SE18 6EF,543600,178637,51.488456,0.066912,Greenwich
199748,The Lamb Inn,"82 Oldham Road, Failsworth, Oldham",M35 0JD,388585,400902,53.504692,-2.173571,Oldham
364061,Three Fishes Inn,"Hereford Road, Bayston Hill, Shrewsbury, Shropshire",SY3 0DB,348704,308960,52.67591,-2.760103,Shropshire
422178,Fox Inn,"168 Holgate Road, York",YO24 4DQ,458850,451342,53.954832,-1.10468,York
56187,Callow Inn,"Callow Top Holiday Park, Buxton Road, Sandybrook, Ashbourne",DE6 2AB,416529,347847,53.027659,-1.755004,Derbyshire Dales
355172,Elford Sports & Social Club,"13 The Beck, Elford",B79 9BT,419029,310519,52.692034,-1.719896,Lichfield
160294,Bellingham Masonic Hall,"Manchester Square, Bellingham, Northumberland",NE48 2AS,383802,583244,55.143278,-2.255659,Northumberland
260185,The Dukes Head,"The Dukes Head (Ph), 57 High Street, Leatherhead",KT22 8AG,516725,156493,51.295611,-0.32725,Mole Valley
384221,Penningtons Octagon Live,"Octagon House, Bradford Road, Sandbeds, Keighley",BD20 5LY,409145,441338,53.868183,-1.862415,Bradford
82938,Marquis Of Granby,"Marquis Of Granby, High Street, Waddingham, Gainsborough",DN21 4SW,498249,396153,53.452993,-0.52194,West Lindsey
242891,The Waterfront on the Pier,"Grand Parade, Eastbourne, East Sussex",BN21 3EL,561769,98907,50.767203,0.292632,Eastbourne
305402,T J Catering,"The Godolphin Club, Wendron Street, Helston, Cornwall",TR13 8PS,166010,27542,50.101771,-5.273428,Cornwall
128017,Westside Lawn Tennis Club,"20 Woodhayes Road, West Wimbledon, London",SW19 4RG,523232,170371,51.418968,-0.229166,Merton
18070,Ye Olde Griffin Hotel,"30 - 32 High Street, March, Cambridgeshire",PE15 9JS,541711,296586,52.548683,0.088512,Fenland
284696,The White Hart,"Lower Horsebridge, Hellingly, East Sussex",BN27 4DJ,557632,111483,50.881344,0.239415,Wealden
166898,"ALBION, THE","FLAT, BRANDLING STREET SOUTH, SUNDERLAND",SR6 0LS,440337,558263,54.917436,-1.372262,Sunderland
46416,Thorn Tree,21 Chesterfield Road Belper Derbyshire,DE56 1FF,435228,348018,53.028287,-1.476194,Amber Valley
150278,Hogans,"115 Commercial Street, Willington, Crook",DL15 0AA,420019,535072,54.710267,-1.690815,County Durham
291179,Slug & Lettuce,"Slug And Lettuce, 20 Chapel Road, Worthing, West Sussex",BN11 1BJ,514922,102680,50.81228,-0.370166,Worthing
207575,Marine Football Club,"127 College Road, Crosby, Sefton Council",L23 3AS,331587,399250,53.485498,-3.032467,Sefton
453093,ROYAL FORTH YACHT CLUB,1 Granton Pier,EH5 1HF,323785,677521,55.984594,-3.223118,City of Edinburgh
17269,The Rabbits,"Stapleford Road, Stapleford Abbotts, Romford, Essex",RM4 1RP,550229,196804,51.649955,0.170078,Epping Forest
78182,Northwick Arms,"Northwick Arms, High Street, Ketton, Stamford",PE9 3TA,498231,304858,52.632586,-0.550004,Rutland
10906,Bakers Arms,"The Bakers Arms, Common Road, Stock, Ingatestone",CM4 9NF,569446,199127,51.665374,0.448717,Chelmsford
154254,The Mallard,"12 Gosforth Street, Felling, Gateshead",NE10 9LS,427641,562070,54.952506,-1.56995,Gateshead
80875,The London Inn,"4 St Johns Street, Stamford, Lincolnshire",PE9 2DB,502896,307069,52.651602,-0.480413,South Kesteven
228580,The Clifden Arms,"75 Clifden Road, Worminghall, Buckinghamshire",HP18 9JR,463993,208264,51.769413,-1.074034,Aylesbury Vale
471559,Victoria Bar,"2 Howgate, Kilwinning, Ayrshire",KA13 6EJ,229973,643366,55.653979,-4.703955,North Ayrshire
11566,Riverside Inn,"The Riverside Inn, Victoria Road, Chelmsford",CM2 6LJ,571298,207057,51.736037,0.479346,Chelmsford
29503,Three Horseshoes Inn,"The Street, Warham, Norfolk",NR23 1NL,594879,341694,52.937245,0.898461,North Norfolk
333891,POET LAUREATE,"5 Pummery Square, Poundbury, Dorset",DT1 3GW,367758,90185,50.710397,-2.457998,West Dorset
266884,Camber Castle,"69 Lydd Road, Camber, East Sussex",TN31 7RS,596955,118678,50.933914,0.801625,Rother
164376,Zetland Masonic Hall,"Chaloner Street, Guisborough",TS14 6QD,461425,515928,54.534908,-1.052239,Redcar and Cleveland
55331,New Bridge Inn,"262 Chellaston Road, Derby",DE24 9EF,437402,331419,52.878943,-1.44569,Derby
358565,Saunders Hall W M C,"Saunders Hall Working Mens Club, Saunders Avenue, Bedworth",CV12 8RJ,435668,286694,52.477015,-1.476282,Nuneaton and Bedworth
233158,The Bear Inn,"Lewes Road, Brighton",BN2 4AE,532208,105961,50.838085,-0.123759,Brighton and Hove
257625,The Snowdrop Inn,The Snowdrop Inn Snowdrop Lane Haywards Heath West Sussex,RH16 2QE,535295,123645,50.996304,-0.073392,Mid Sussex
184335,Sams Bar,"12 Railway Street, Chorley",PR7 2TZ,358625,417421,53.651641,-2.627448,Chorley
204518,Robin Hood Inn,"280 Holcombe Road, Helmshore, Rossendale, Lancashire",BB4 4NP,377765,421498,53.689452,-2.338175,Rossendale
467522,Strathpeffer Golf Club,"Strathpeffer Spa Golf Club, Golf Course Road, Strathpeffer, Ross-Shire",IV14 9AS,248120,858532,57.591193,-4.542534,Highland
574,Rose and Crown,"The Street, Elmsett, IPSWICH, Suffolk",IP7 6PA,605723,246692,52.080338,1.00088,Babergh
364185,White Lion,"West Castle Street, Bridgnorth, Shropshire",WV16 4AB,371594,292922,52.533424,-2.42019,Shropshire
364187,White Lion Inn,"Ash Magna, Whitchurch, Shropshire",SY13 4DR,357196,339684,52.952814,-2.638551,Shropshire
363729,The Bricklayer Arms,"Bricklayers Arms, 78 Copthorne Road, Shrewsbury, Shropshire",SY3 8NL,348343,312831,52.710662,-2.76605,Shropshire
292259,The Derehams Inn,"The Derehams Inn, Derehams Lane, Loudwater, High Wycombe",HP10 9RR,490530,191094,51.611409,-0.693989,Wycombe
329507,Jolly Sailor Inn,Ogwell Newton Abbot Devon,TQ12 6AW,283914,70007,50.518311,-3.638816,Teignbridge
178252,Spinners Arms,"Spinners Arms, Cummersdale Road, Cummersdale",CA2 6BD,338919,553282,54.870561,-2.953314,Carlisle
488363,Church Inn Ltd,"Bedwellty Road, Bedwellty, Blackwood",NP12 0BD,316630,200436,51.696447,-3.207652,Caerphilly
488860,Newbridge Hotel,"High Street, Newbridge, Newport",NP11 4FH,320775,196812,51.664479,-3.146869,Caerphilly
265117,Island Bohemian Bowls Club,"Thames Side, Reading",RG1 8DG,471535,174313,51.463279,-0.971659,Reading
240406,Kings Arms Hotel,"The Kings Arms, 63-65 Strand Street, Sandwich, Kent",CT13 9HN,632911,158488,51.2779,1.338174,Dover
501693,The Hardwick,"Hardwick, Abergavenny, Monmouthshire",NP7 9AA,331334,211609,51.798885,-2.997153,Monmouthshire
482724,West Of Scotland Bowling Club,"19 Rutherglen Road, Rutherglen, Glasgow",G73 1SX,260473,662555,55.835983,-4.229453,South Lanarkshire
211395,Seven Stars Inn,"Millbrook Lane, Eccleston, St Helens, Merseyside",WA10 4QZ,348859,396171,53.459791,-2.771702,St. Helens
351826,The Cabin,"Alderwood Precinct, Sedgley, Dudley",DY3 3QY,391207,294480,52.548095,-2.131114,Dudley
291769,Hedsor Social Club,"Hedsor Social Club, Hedsor Road, Bourne End, Bucks",SL8 5ES,490033,186586,51.570957,-0.70232,Wycombe
193297,The Baltic Fleet,"33 Wapping, LIVERPOOL, Merseyside",L1 8DQ,334487,389542,53.39862,-2.986746,Liverpool
457660,Lundin Sports Club,Victoria Road Lundin Links Leven Fife,KY8 6AY,340952,702713,56.213306,-2.953601,Fife
162994,The Shepherds Rest,"Clayport Bank, Alnwick Moor, Alnwick",NE66 2AH,417728,612628,55.407267,-1.721582,Northumberland
106403,Juno,"134-135 Shoreditch High Street, London",E1 6JE,533409,182585,51.526428,-0.078287,Hackney
126454,The Cranbrook,"65 Cranbrook Road, London",SE8 4EJ,537420,176537,51.471119,-0.022872,Lewisham
388478,Station Inn,"Station Inn, Low Sleights Road, Ingleton",LA6 3AS,377953,479954,54.214838,-2.339575,Craven
456764,Fairways Catering Ltd,Golf Club House Golf Club Lane Elie Leven Fife,KY9 1AS,348703,700171,56.19138,-2.828158,Fife
109652,Bar Esteban,"Shop, 29 Park Road, Hornsey, London",N8 8TE,530014,188535,51.580689,-0.125,Haringey
70246,Horse And Jockey,"Brackenfield Lane, Wessington, Alfreton",DE55 6DW,436961,357935,53.117319,-1.44922,North East Derbyshire
278148,The Old Bell And Crown,"Village Street, Hatherden, Andover, Hampshire",SP11 0HT,434436,150231,51.250224,-1.507981,Test Valley
270271,Mariner,"16 The Stade, Folkestone, Kent",CT19 6AB,623429,136116,51.08084,1.188537,Shepway
460004,By  The Way,"108 Main Street, Glasgow",G69 6AE,268034,663933,55.850484,-4.109489,Glasgow City
56598,Plough Inn,"Leadmill, Hathersage, Derbyshire",S32 1BA,423341,380435,53.320339,-1.651072,Derbyshire Dales
19561,The Sun Inn,"154 Beccles Road, Bradwell, Norfolk",NR31 8PS,650749,303791,52.574082,1.699189,Great Yarmouth
75083,Hemlock Stone,"The Hemlock Stone Public House, Bramcote Lane, Nottingham",NG8 2QQ,451830,339206,52.947752,-1.230084,Nottingham
180309,The Cheshire Cat,"26 Welsh Row, Nantwich",CW5 5ED,364896,352387,53.067559,-2.525334,Cheshire East
300572,Westbury Park Pub & Kitchen,"Westbury Park Tavern, Northumbria Drive, Henleaze, Bristol",BS9 4HP,357573,176027,51.481596,-2.612356,"Bristol, City of"
240668,Royal Oak,"New Dover Road, Capel Le Ferne, Kent",CT18 7HY,626350,138706,51.102948,1.231806,Dover
66472,The Reynard,"17 - 19 Market Street, Leicester",LE1 6DN,458723,304224,52.632601,-1.133777,Leicester
164172,The Abbey Inn,"37 Redcar Road, Guisborough",TS14 6HR,461501,516390,54.53905,-1.050969,Redcar and Cleveland
265706,The Sportsman,"201 Shinfield Road, Reading",RG2 7DS,473384,170580,51.429492,-0.945821,Reading
271434,Wexham Bowls Club,"Wexham Bowls Club, Norway Drive, Slough",SL2 5QP,498850,181820,51.526652,-0.576479,Slough
143703,Be At One,"23 Wellington Street, London",WC2E 7DA,530520,180877,51.511753,-0.120554,Westminster
382674,Crossflatts Cricket Club,"Keighley Road, Bingley",BD16 2DX,409876,440874,53.863991,-1.851314,Bradford
250358,Horsham Bowling Club,"Bowling Green, Holbrook Recreation Centre, Pondtail Road, Horsham",RH12 5EZ,517876,133162,51.085683,-0.318399,Horsham
255561,Homeward Bound,"Homeward Bound, 72 High Street, Halling",ME2 1BY,570410,164082,51.350266,0.44572,Medway
395725,Harrogate Ex Servicemen's Club,"4 East Parade, Harrogate, North Yorkshire",HG1 5LT,430715,455612,53.995638,-1.532975,Harrogate
478528,The Auld Cross Keys Inn,Main Street Denholm Hawick Roxburghshire,TD9 8NU,356861,618402,55.457555,-2.683705,Scottish Borders
244154,Lower Green Sports/Social Club,"Lower Green Community Centre, Farm Road, Esher",KT10 8AU,513484,165981,51.381544,-0.370693,Elmbridge
500033,Tafarn Y Glob,"The Globe, Stryd Albert, Bangor, Gwynedd",LL57 2EY,257582,372209,53.227772,-4.134925,Gwynedd
501564,Rose & Crown,"Monmouth Road, Tintern, Chepstow, Monmouthshire",NP16 6SE,352932,200270,51.699189,-2.682443,Monmouthshire
14368,The Old Chequers,"Gaddesden Row, Great Gaddesden, Hemel Hempstead",HP2 6HH,505705,212321,51.799546,-0.468486,Dacorum
21826,The Farmers,"200 Broadway, Yaxley, Peterborough",PE7 3NT,518124,292433,52.516989,-0.260631,Huntingdonshire
490582,Insole Arms,"Insole Arms, Harvey Street, Canton, Cardiff,",CF5 1QW,316430,176629,51.482417,-3.204868,Cardiff
121414,Coronation Hall,"Ritz Bingo Hall, St Marks Hill, Surbiton",KT6 4LQ,518113,167431,51.393625,-0.303726,Kingston upon Thames
322621,Swan Inn,"Tockington Green, Tockington, Bristol, South Gloucestershire",BS32 4NJ,360887,186484,51.575855,-2.5658,South Gloucestershire
352883,The Black Horse,"72 Moor Street, Burton Upon Trent",DE14 3SZ,424168,322926,52.803361,-1.642954,East Staffordshire
332526,Palladium Club,"Lower Gunstone, Bideford, Devon",EX39 2DE,245278,126668,51.018513,-4.207271,Torridge
402328,White Horse Inn,"Scholes Road, Jackson Bridge, Holmfirth",HD9 1LY,416342,407452,53.563441,-1.754746,Kirklees
42856,The Kings Arms,"Kings Arms, Market Hill, Saffron Walden, Essex",CB10 1HQ,553828,238558,52.024123,0.240606,Uttlesford
462920,Rumshack,"657 Pollokshaws Road, Glasgow",G41 2AB,257960,662700,55.836552,-4.26962,Glasgow City
27938,The Tally Ho,"Tally Ho, London Road, Barkway, Royston",SG8 8EX,538381,234907,51.995383,0.014154,North Hertfordshire
242846,The London & County,"46-48 Terminus Road, Eastbourne, East Sussex",BN21 3LP,560921,99082,50.769011,0.280693,Eastbourne
190839,C A D W A Social Club,"Bowland Avenue, LIVERPOOL, Merseyside",L16 1JP,340931,389982,53.403337,-2.889928,Liverpool
188641,Deanes House Hotel,"Church Street, Prescot, Knowsley",L34 3LA,346530,392753,53.428839,-2.806194,Knowsley
10528,The Bell,"4 Market Square, Toddington, Bedfordshire",LU5 6BP,501017,228850,51.948982,-0.531615,Central Bedfordshire
53075,Staveley Miners Welfare,"8 Market Street, Chesterfield, Derbyshire",S43 3UT,443205,374580,53.266471,-1.353704,Chesterfield
74708,Das Kino,"22 Fletcher Gate, Nottingham",NG1 2FZ,457467,339797,52.952492,-1.146096,Nottingham
131510,The Crown & Crooked Billet P H,"13 Cross Road, Woodford Green",IG8 8BN,542821,191845,51.607334,0.061056,Redbridge
487233,Brynteg Comp Upper Canteen,"Ewenny Road, Bridgend, Bridgend, Bridgend County Boro",CF31 3ER,290586,178847,51.497938,-3.577598,Bridgend
306913,Fairford Football Club,"Cinder Lane, Fairford, Gloucestershire",GL7 4AX,416133,201143,51.708785,-1.767915,Cotswold
151870,Stephs,"6-10 Newmarket Street, Consett",DH8 5LQ,410684,551085,54.854449,-1.835115,County Durham
365450,The Flute & Flagon,"28-30 Station Road, Solihull, West Midlands",B91 3SB,415021,279633,52.414492,-1.780582,Solihull
149037,Black Horse Inn,"107 High Street, Tow Law, Bishop Auckland",DL13 4DN,412086,538628,54.742483,-1.813793,County Durham
353216,Brewers Arms,"97 Eign Road, Hereford",HR1 2RU,351897,239496,52.051752,-2.702897,"Herefordshire, County of"
20204,The Willow,"Hodings Road, Harlow, Essex",CM20 1NN,544399,210576,51.775234,0.091572,Harlow
254562,Players,"57 High Street, Maidstone, Kent",ME14 1SY,575841,155591,51.272338,0.519448,Maidstone
250448,Limeburners,"Lordings Road, Newbridge, Billingshurst, West Sussex",RH14 9JA,507236,125599,51.019767,-0.47249,Horsham
367090,The Wildwood,"Wildwood Drive, Wildwood, Stafford",ST17 4RA,394540,320807,52.78481,-2.082394,Stafford
365471,The Lyndon Pub Company,"190 Lyndon Road, Solihull",B92 7QQ,413955,283302,52.447512,-1.796102,Solihull
237807,Fox and Hounds,"Silver Hill, Chalfont St. Giles, Buckinghamshire",HP8 4PS,498867,193622,51.632732,-0.572915,Chiltern
282270,The Black Horse,"Gozzards Ford, Abingdon, Oxon",OX13 6JH,446966,198503,51.683332,-1.322065,Vale of White Horse
251627,Hogshead,"Hogshead Pub, 20 High Street, Newport",PO30 1SS,450131,89199,50.700281,-1.291515,Isle of Wight
196506,National Squash Centre,"Rowsley Street, Beswick And Clayton, Manchester",M11 3FF,386646,398673,53.484601,-2.202709,Manchester
398643,The Priory Inn,"121 Priory Road, Hull",HU5 5RY,505654,430200,53.757448,-0.398947,"Kingston upon Hull, City of"
273909,Millers Pond,"Middle Road, Southampton",SO19 8FQ,445006,111150,50.898082,-1.361396,Southampton
253798,The Sussex Coaster,"80-82 South Coast Road, Peacehaven, East Sussex",BN10 8SJ,542016,100739,50.788843,0.013425,Lewes
47411,Anchor Inn,"The Anchor Inn, Eastgate, Worksop, Nottinghamshire",S80 1RE,458731,379368,53.308007,-1.120052,Bassetlaw
453712,The Bon Vivant,55-59 Thistle Street,EH2 1DY,325197,674098,55.95406,-3.199541,City of Edinburgh
151332,Quinns Inn,"66 High Street, Spennymoor",DL16 6DD,425653,533746,54.698088,-1.60349,County Durham
297987,Horse & Jockey,"Horse And Jockey, 56 Nags Head Hill, St George, Bristol",BS5 8LW,363336,173175,51.456358,-2.529073,"Bristol, City of"
32568,The Wheatsheaf,"322 Eastfield Road, Eastfield, Peterborough",PE1 4RA,520328,300194,52.586244,-0.225356,Peterborough
20725,The Roundbush Public House,"Round Bush Lane, Aldenham                                Watford",WD25 8BG,514497,198423,51.67292,-0.345609,Hertsmere
295879,The Lions Head and Sound Circus,"140 Holdenhurst Road, Bournemouth",BH8 8AS,409958,92025,50.727761,-1.860276,Bournemouth
374284,The Malthouse,"New Road, Willenhall, Walsall, West Midlands",WV13 2BG,396291,298392,52.583332,-2.056172,Walsall
169669,Royal Air Force Club,"Petteril Street, Silloth, Wigton, Cumbria",CA7 4DH,311106,553852,54.871506,-3.386762,Allerdale
349388,Square One Entertainment Venue,"The Hub, Jordan Well, Coventry",CV1 5FB,434107,278708,52.405323,-1.500076,Coventry
19525,The Lion,"1 Euston Road, Great Yarmouth, Norfolk",NR30 1DX,652894,307884,52.609798,1.733895,Great Yarmouth
498150,Royal British Legion Club (Flint) Ltd,"Flint British Legion, Allt Goch, Flint, Flintshire",CH6 5NF,324302,372538,53.244442,-3.135825,Flintshire
141028,The Coppermill,"205 Coppermill Lane, Walthamstow",E17 7HF,535867,188623,51.580101,-0.040547,Waltham Forest
398685,The Whistling Goose,"112 Amsterdam Road, Hull",HU7 0XF,510372,432497,53.777108,-0.326598,"Kingston upon Hull, City of"
21808,The Chequers Inn,"St Marys Street, Eynesbury, St Neots",PE19 2TA,518388,259966,52.225175,-0.268192,Huntingdonshire
349661,The Rose & Crown,"Rose And Crown, Walsgrave Road, Coventry",CV2 4BN,435730,279351,52.411,-1.476152,Coventry
203622,Rochdale Masonic Buildings,"1 Richard Street, Rochdale, Lancashire",OL11 1DU,389944,412806,53.611698,-2.153469,Rochdale
157084,Goose,"Eldon Garden, Percy Street, Newcastle upon Tyne",NE1 7RA,424622,564629,54.975668,-1.616869,Newcastle upon Tyne
370755,Tanworth And Camp Hill Cricket Club,"Tanworth Cricket Club, Tanworth Lane, Beoley, Redditch",B98 9EH,409527,269465,52.323202,-1.861641,Stratford-on-Avon
20248,Aldenham Golf & Country Club,"Church Lane, Aldenham                                Watford",WD25 8NN,513794,198312,51.672074,-0.355807,Hertsmere
187222,Halfway House Inn,"Halton Road, Runcorn, Cheshire",WA7 5NR,352718,382736,53.3394,-2.711569,Halton
131710,Woodford Golf Club,"2 Sunset Avenue, Woodford Green",IG8 0ST,540091,192324,51.612324,0.021851,Redbridge
383649,Library Tap,"Main Street, Bingley",BD16 2HT,410758,439115,53.848155,-1.837963,Bradford
153842,Pelaw Inn,"Shields Road, Heworth, Gateshead",NE10 0QD,429330,562240,54.953938,-1.543562,Gateshead
185985,The Crown and Cushion,"2 Boroughgate, Appleby-In-Westmorland",CA16 6XB,368334,520345,54.577324,-2.491376,Eden
376861,Pop World,"Babylon, 8 - 10 North Street, Wolverhampton, West Midlands",WV1 1RD,391324,298699,52.586016,-2.129486,Wolverhampton
392373,Goole Town Cricket Club,"Carr Lane, Goole, East Riding Of Yorkshire",DN14 6NF,474928,425027,53.716288,-0.866122,East Riding of Yorkshire
493549,TAFARN JEM,"Tafarn Jem, Cwmann, Lampeter, Carmarthenshire",SA48 8HF,261502,243727,52.074544,-4.022248,Carmarthenshire
248241,The Barley Mow,"The Hurst, Winchfield, HOOK, Hampshire",RG27 8DE,477723,153943,51.279331,-0.88705,Hart
135855,The fox on the hill,"149, Denmark Hill, London",SE5 8EH,532781,175715,51.464839,-0.089917,Southwark
220707,Lamberhead Green WM Club,"White Street, Pemberton, Wigan",WN5 8JW,354675,404614,53.536208,-2.685338,Wigan
183483,The Wheatsheaf,"Wheatsheaf Inn, 2 High Street, Weaverham, Northwich",CW8 3EX,361399,374129,53.262754,-2.580151,Cheshire West and Chester
381488,The Darley Inn,"The Darley Inn, 35 High Street, Worsbrough Bridge",S70 4SE,436015,404042,53.531797,-1.458131,Barnsley
80899,The Plough Inn,"4 Spring Lane, Horbling, Lincolnshire",NG34 0PF,511767,335237,52.90295,-0.339734,South Kesteven
56622,Red Lion,"Main Street, Kniveton, Derbyshire",DE6 1JH,420785,350291,53.04948,-1.691391,Derbyshire Dales
248588,Dragon Bar,"71 George Street, Hastings, East Sussex",TN34 3EE,582341,109500,50.856268,0.589316,Hastings
289726,Bearwood Lakes Golf Club,"Club House, Bearwood Lakes Golf Club, Bearwood Road, Sindlesham",RG41 4SJ,478116,168456,51.409757,-0.878236,Wokingham
480154,Royal Airforce Association,10 Ardayre Road Prestwick South Ayrshire,KA9 1QL,234674,625950,55.499278,-4.618894,South Ayrshire
446950,The Wine Press,"16 Dock Street, Dundee, Dundee City",DD1 3DP,340524,730231,56.460445,-2.966733,Dundee City
203263,Kingsway Hotel,"Kingsway Hotel, 145 Kingsway, Rochdale, Lancashire",OL16 5HS,391048,412295,53.607125,-2.136767,Rochdale
70201,Gosforth Fields Bar,"Gosforth Fields Sports Association, Bubnell Road, Dronfield Woodhouse, Dronfield",S18 8NP,434096,378685,53.304021,-1.489814,North East Derbyshire
284138,Maresfield Cricket Club,"The Pavillion, High Street, Maresfield, East Sussex",TN22 2EE,546497,123763,50.994624,0.086177,Wealden
323278,Dartmouth Arms,"26 Lower Street, Dartmouth",TQ6 9AN,287832,51113,50.349224,-3.577914,South Hams
370774,The Antelope Inn,"Antelope Inn, The Green, Lighthorne, Warwick",CV35 0BX,433956,255816,52.199536,-1.504597,Stratford-on-Avon
15754,Lord Haig,"15 South Street, Hertford, Hertfordshire",SG14 1AZ,532837,212706,51.797244,-0.07509,East Hertfordshire
406863,The Hanover Arms,"Hanover Arms, 65 Lower Wortley Road, Lower Wortley, Leeds",LS12 4SL,426836,432132,53.784815,-1.59419,Leeds
184544,The Talbot,"Balshaw Lane, Euxton, Chorley",PR7 6HX,355854,418489,53.661013,-2.669505,Chorley
792,The Swan,"Swan Inn, The Street, Holbrook, IPSWICH",IP9 2PZ,616845,236583,51.985358,1.156531,Babergh
501785,Usk Conservative Club,"Monmouth Conservative Club, 16 Maryport Street, Usk, Monmouthshire",NP15 1AB,337673,200830,51.702743,-2.903306,Monmouthshire
224958,UBER,"2B Vicarage Road, Poulton-Le-Fylde, Lancashire",FY6 7BE,334959,439509,53.847718,-2.990107,Wyre
252184,Royal Victoria Yacht Club,"Royal Victoria Yacht Club, 91 Fishbourne Lane, Wootton",PO33 4EU,455698,92919,50.733215,-1.212134,Isle of Wight
228740,The Three Horseshoes,"10 Main Road, Drayton Parslow, Buckinghamshire",MK17 0JS,484121,228667,51.950146,-0.777429,Aylesbury Vale
389302,Concertina Club,"Concertina Band Working Mens Club, 9A Dolcliffe Road, Mexborough, Doncaster",S64 9AZ,447312,399934,53.493992,-1.288331,Doncaster
310624,Cobblers Ale House,"7 Church Street, Newent, Gloucestershire",GL18 1PU,372305,225852,51.930485,-2.404191,Forest of Dean
148645,Travellers Rest,"2 West Auckland Road, Darlington",DL3 9ER,427394,515534,54.534343,-1.578157,Darlington
242333,Hudsons Bar,"114 South Street, Eastbourne, East Sussex",BN21 4LZ,561187,98786,50.766268,0.284332,Eastbourne
293529,Pony And Trap,"Pony & Trap, Newtown, Moorledge Road, Chew Magna",BS40 8TQ,358826,161312,51.349376,-2.592599,Bath and North East Somerset
490797,Llanishen Golf Club,"Llanishen Golf Club, Heol Hir, Lisvane, Cardiff",CF14 9UD,317224,184151,51.550153,-3.195206,Cardiff
511699,The Crofty,"71 Pencaerfenni Lane, Crofty",SA4 3SW,252671,194934,51.633866,-4.130193,Swansea
135097,Old kings head,"45, Borough High Street, London",SE1 1NA,532683,180135,51.504582,-0.089668,Southwark
73972,Whitehills Public House,"Whitehills Way, Whitehills, Northampton, NN2 8EW",NN2 8EW,474755,264890,52.277085,-0.905736,Northampton
199755,The Morning Star Inn,"107 Grains Road, Shaw, Oldham",OL2 8HZ,394470,409039,53.577917,-2.084991,Oldham
500004,Sunnysands Club,"Tal y Bont, Barmouth, Gwynedd",LL43 2LQ,258747,320226,52.761124,-4.094753,Gwynedd
510132,Tylorstown Ex Servicemens Club,"228-229 East Road, Tylorstown, Ferndale",CF43 3DA,301038,195322,51.647962,-3.431728,Rhondda Cynon Taf
388527,The Buck Inn,"Buck Inn, Buck Inn Road, Buckden",BD23 5JA,394230,477197,54.190514,-2.089925,Craven
55810,The Derby Irish Centre,"11 Becket Street, Derby",DE1 1HT,434996,336140,52.921541,-1.480933,Derby
367750,The George Inn,"Post Office Road, Alstonfield, Ashbourne",DE6 2FX,413176,355504,53.09658,-1.804686,Staffordshire Moorlands
281362,The Halfway House,"Halfway House, Horsmonden Road, Brenchley, Tonbridge",TN12 7AX,568202,141385,51.147007,0.403387,Tunbridge Wells
367492,Leek Masonic Club,"2-4 King Street, Leek",ST13 5NW,398341,356215,53.103128,-2.026232,Staffordshire Moorlands
506393,Brent & Victoria,"Welshpool Golf Club, Golfa, Welshpool, Powys",SY21 9AQ,301994,270852,52.326981,-3.439535,Powys
230142,Empire / Club 8,"14 Market Street, Bracknell",RG12 1JG,486878,169281,51.4159,-0.752085,Bracknell Forest
487670,Nantymoel Hotel,"Commercial Street, Nant-Y-Moel, Bridgend County Borough",CF32 7RB,293453,192916,51.62494,-3.540581,Bridgend
333826,NEW INN,"The New Inn, 14 Long Street, Cerne Abbas, Dorset",DT2 7JF,366513,101137,50.80881,-2.47663,West Dorset
445998,Cookies,"178-182 Hilltown, Dundee",DD3 7BL,340087,731104,56.46824,-2.974024,Dundee City
349008,Nursery Kitchen,"38 Lord Street, Coventry",CV5 8DA,431832,278932,52.407465,-1.533495,Coventry
144548,Duke Of Wellington Public House,"63 Eaton Terrace, London",SW1W 8TR,528274,178768,51.493305,-0.153654,Westminster
221818,Wigan Sports Club,"Parsons Walk, Wigan",WN1 1RU,357881,406191,53.55065,-2.637167,Wigan
356778,FULL MOON,"5 Liverpool Road, Newcastle Under Lyme, Staffordshire",ST5 2AU,384685,346192,53.012811,-2.229716,Newcastle-under-Lyme
328819,The Farmers Arms,"West Hatch, Taunton, Somerset",TA3 5RS,327268,119791,50.972919,-3.037266,Taunton Deane
180577,Toby Carvery,"London Road, Adlington, Macclesfield",SK10 4NA,391113,380224,53.318867,-2.134866,Cheshire East
351324,Pedmore Cricket Club,"Pedmore Hall Lane, Pedmore, Stourbridge",DY9 0SR,391289,281994,52.435848,-2.129559,Dudley
198625,Delph Club,"Delph Club, Gartside Street, Delph, Oldham",OL3 5DW,398477,407905,53.567752,-2.024468,Oldham
390313,Murphy's Sports Bar,"Brunel Road, Off York Road, Doncaster",DN5 8PT,455917,404271,53.532128,-1.157869,Doncaster
229976,Binfield Football Club,"Hill Farm Lane, Binfield, Bracknell",RG42 5QZ,485691,172351,51.443679,-0.768408,Bracknell Forest
26853,The Greyhound,"The Street, Botesdale, DISS",IP22 1BS,604787,275834,52.342333,1.004856,Mid Suffolk
306390,Two Clomes,"Quintrell Downs, Newquay, Cornwall",TR8 4PD,185314,60084,50.401324,-5.022346,Cornwall
189660,Kings Arms,"248 Marine Road Central, Morecambe, Lancashire",LA4 4BJ,343349,464430,54.072669,-2.867234,Lancaster
259337,The Nags Head,"30 High Street, Great Linford, Milton Keynes",MK14 5AX,485278,242060,52.070363,-0.757269,Milton Keynes
307350,The Bell At Stow,"The Bell Inn, Park Street, Stow-On-The-Wold, CHELTENHAM",GL54 1AJ,419473,225603,51.928614,-1.71821,Cotswold
244529,The Ferry,"Portsmouth Road, Thames Ditton, Surrey",KT7 0XY,516611,166948,51.389603,-0.325463,Elmbridge
251495,Flanagans,"Flanagans, 7 Pier Street, Sandown",PO36 8JR,459799,84085,50.653375,-1.155458,Isle of Wight
206108,Ship Canal,"85 Barton Lane, Eccles",M30 0EY,377420,398287,53.480824,-2.341712,Salford
133059,The Orange Tree,"The Orange Tree, 45 Kew Road, Richmond",TW9 2NQ,518065,175264,51.464044,-0.301808,Richmond upon Thames
350400,Crown Inn P H,"208 Hagley Road, Stourbridge",DY8 2JU,390689,282880,52.443803,-2.138409,Dudley
235050,The Shakespeare,"5 Butchery Lane, Canterbury,",CT1 2JR,615000,157798,51.27874,1.081361,Canterbury
209864,The Albert Hotel,"The Albert Hotel, Rayrigg Road, Windermere",LA23 3BY,340325,496990,54.364907,-2.919923,South Lakeland
396540,The Dunsforth,"Lower Dunsforth, North Yorkshire",YO26 9SA,444002,464906,54.078196,-1.32897,Harrogate
265249,Milk Bar Reading,"8 Merchants Place, Reading, Berkshire",RG1 1DT,471416,173657,51.457388,-0.973505,Reading
325445,The Red Lion Inn,"Main Street, Babcary, Somerton, Somerset",TA11 7ED,356649,128652,51.055573,-2.6199,South Somerset
22764,Pump & Grind,"1 Great Colman Street, Ipswich, Suffolk",IP4 2AA,616541,244697,52.058317,1.15724,Ipswich
203794,Success to the Plough,"Success To The Plough, 179 Bolton Road, Rochdale, Lancashire",OL11 3LW,387682,411784,53.602472,-2.187618,Rochdale
401907,The Fenay Bridge,"241 Penistone Road, Fenay Bridge, Huddersfield",HD8 0AS,418217,415531,53.635986,-1.725969,Kirklees
453515,Stramash,"207 Cowgate, Edinburgh",EH1 1JQ,325918,673467,55.948504,-3.187807,City of Edinburgh
27917,The Plume of Feathers PH,"Upper Green, Ickleford, Hitchin",SG5 3YD,518241,231710,51.971285,-0.280137,North Hertfordshire
498450,Y Dderwen - The Oak,"Denbigh Road, Hendre, Mold, Flintshire",CH7 5QE,319307,367633,53.199626,-3.209418,Flintshire
205208,Dukes Gate,"Dukes Gate Hotel, Cleggs Lane, Little Hulton",M38 9NJ,372565,404516,53.53657,-2.415414,Salford
318620,Thistle Park Tavern,"32 Commercial Road, Plymouth",PL4 0LE,248845,54000,50.366437,-4.126702,Plymouth
308446,Red Lion,"Red Lion Inn, Broadclyst, Exeter",EX5 3EL,298282,97297,50.766323,-3.44372,East Devon
170062,Workington A F C Ltd,"Borough Park, New Bridge Road, Workington, Cumbria",CA14 2DT,299968,529289,54.648747,-3.551791,Allerdale
401841,The Chartist,"74 Commercial Road, Skelmanthorpe, Huddersfield",HD8 9DS,423674,410420,53.589831,-1.643828,Kirklees
288757,The Old Windsor Club,"Old Windsor Club, 46A St Lukes Road, Old Windsor, Windsor",SL4 2QJ,498289,174398,51.460035,-0.586627,Windsor and Maidenhead
358257,Griff & Coton Sports Club,"Griff And Coton Sports Club, Heath End Road, Nuneaton",CV10 7JQ,435667,290765,52.513611,-1.475862,Nuneaton and Bedworth
47467,Blue Bell Inn,"Great North Road, Ranskill, Nottinghamshire",DN22 8NJ,465634,387972,53.384534,-1.014689,Bassetlaw
417839,SADACCA Ltd,"48 Wicker, Sheffield",S3 8JB,435824,387883,53.386581,-1.462848,Sheffield
357163,SNEYD ARMS,"1 The Village, Newcastle Under Lyme, Staffordshire",ST5 5AD,380786,345264,53.004343,-2.287774,Newcastle-under-Lyme
382099,Bay Horse Inn,"Hebden Bridge Road, Oxenhope, Keighley",BD22 9LN,403167,434834,53.809778,-1.953388,Bradford
262723,The William Morris,"59A Between Towns Road, Oxford, Oxfordshire",OX4 3LR,454159,204034,51.732411,-1.217175,Oxford
69492,Newark Town Bowls Club,"London Road, Newark On Trent, Nottinghamshire",NG24 1TS,479814,353451,53.07234,-0.810177,Newark and Sherwood
502768,Tonna Rugby Football Club,"Tonna Rugby Football Club, Mount Pleasant, Tonna, Neath, Neath Port Talbot",SA11 3HX,277462,198724,51.673879,-3.773514,Neath Port Talbot
397654,Hull Cheese,"39-41 Paragon Street, Hull",HU1 3PE,509438,428774,53.743866,-0.342083,"Kingston upon Hull, City of"
407888,Freemans Arms,"132 Freeman Street, Grimsby",DN32 7AJ,527629,409966,53.570781,-0.074132,North East Lincolnshire
444510,The Old Clubhouse,The Old Clubhouse Machrihanish Campbeltown Argyll And Bute PA28 6PT,PA28 6PT,164434,620665,55.423094,-5.724172,Argyll and Bute
342159,Hare And Hounds P H,"Hare And Hounds, High Street, Moseley And Kings Heath, Birmingham",B14 7JZ,407371,281991,52.435854,-1.893003,Birmingham
224727,SANDPIPER HOTEL,"Sandpiper Hotel, Cleveleys Avenue, Thornton Cleveleys, Lancashire",FY5 2NH,332029,443997,53.887682,-3.035631,Wyre
27951,The Woodman Inn,"Nuthampstead, Royston",SG8 8NB,541171,234459,51.990646,0.054579,North Hertfordshire
65344,Latimer Ward Conservative Club,"Latimer Conservative Club, Surrey Street, Leicester",LE4 6FG,459864,306019,52.648611,-1.116595,Leicester
38365,The Tollgate,"142 Fornham Road, Bury St Edmunds, Suffolk",IP32 6AX,585151,265971,52.260736,0.711564,St Edmundsbury
52336,Wheel Inn,"The Wheel Inn (Ph), 1770 Melton Road, Rearsby",LE7 4YS,465226,314472,52.723972,-1.03568,Charnwood
391870,Cascara,"38 Prestongate, Hessle, East Riding Of Yorkshire",HU13 0RE,503240,426324,53.723124,-0.436839,East Riding of Yorkshire
323820,The Cherub Inn,"13 Higher Street, Dartmouth",TQ6 9RB,287786,51250,50.350438,-3.578601,South Hams
307632,Beer Mens Social Club,"Beer Social Club, Berry Hill, Beer, Seaton",EX12 3JP,322831,89501,50.70001,-3.094074,East Devon
210889,Clock Face Labour & Social Club,"469A Clock Face Road, Clock Face",WA9 4TZ,352935,391221,53.415682,-2.709577,St. Helens
233004,Steve's Food,"7 - 9 Manchester Street, Brighton",BN2 1TF,531431,104008,50.82071,-0.135488,Brighton and Hove
170189,Chandlers,"2 Ramsden Dock Road, Barrow-In-Furness, Cumbria",LA14 2TN,319646,468031,54.101868,-3.230341,Barrow-in-Furness
176662,The Kestrel Suite & Kokos,"Warehouse Adj To Falcon Inn, Cow Lane, Burnley",BB11 1NN,383794,432573,53.789218,-2.247466,Burnley
333166,The Who'd Have Thought It,"The Who'd Have Thought It Inn, Road Past Blowiscombe Barton, Milton Combe",PL20 6HP,248879,65972,50.474027,-4.131063,West Devon
346694,The Gate Hangs Well,"Woodgate Road, Stoke Prior, Bromsgrove, Worcestershire",B60 4HG,396504,266311,52.294924,-2.05268,Bromsgrove
370935,The Red Lion,"Red Lion Inn, Front Street, Ilmington, Shipston-on-Stour",CV36 4LX,421309,243601,52.09035,-1.690397,Stratford-on-Avon
44330,Norman Warrior,"The Norman Warrior, Fir Lane, Lowestoft, Suffolk",NR32 2RB,653527,294096,52.485824,1.732702,Waveney
313274,The Red Lion Inn,"Woolverton, Bath",BA2 7QS,379228,154038,51.285087,-2.299228,Mendip
395219,Alice Hawthorn Inn,"Nun Monkton, North Yorkshire",YO26 8EW,450795,457763,54.013389,-1.226348,Harrogate
253803,The Tally Ho,"Baxter Road, Lewes, East Sussex",BN7 2SP,540795,110769,50.879272,-0.000037,Lewes
304768,Redruth Cricket Club,"Trewirgie Hill, Redruth, Cornwall",TR15 2TB,169843,41454,50.22819,-5.228332,Cornwall
45981,Kilburn Social Club,Chapel Street Kilburn Belper Derbyshire,DE56 0NR,438242,345788,53.008045,-1.43152,Amber Valley
234981,The Jolly Sailor,"75 Northgate, Canterbury,",CT1 1BA,615171,158235,51.282599,1.084072,Canterbury
497624,Crofts Club,"Shore Road, Gronant, Prestatyn, Flintshire",LL19 9SS,309081,383742,53.342732,-3.367066,Flintshire
45572,Amber Valley Rugby Club,Lower Somercotes Somercotes Alfreton Derbyshire,DE55 4NQ,443141,353303,53.075222,-1.357511,Amber Valley
77171,The Elms Social And Ex Service Club,"The Elms, Bushloe End, Wigston, Leicestershire",LE18 2BA,460292,298767,52.583378,-1.111604,Oadby and Wigston
334689,The George Inn,"Brompton Regis, Dulverton, Somerset",TA22 9NL,295072,131487,51.073078,-3.499068,West Somerset
449096,Hayweights Bar,"82 North High Street, Musselburgh, East Lothian",EH21 6AL,333979,672802,55.943706,-3.058609,East Lothian
151078,Osborne Working Mens Club Ltd,"Osborne Road, Chester-Le-Street",DH3 3DS,427333,551180,54.854684,-1.575789,County Durham
444959,Station Hotel,"Station Hotel, 50 Primrose Street, Alloa, Clackmannanshire",FK10 1JG,288641,692992,56.116636,-3.792546,Clackmannanshire
150914,Murton Colliery Club Ltd,"Claude Terrace, Murton, Seaham",SR7 9DU,439574,547314,54.81912,-1.385661,County Durham
290361,The Bull at Barkham,"The Bull Inn, Barkham Road, Arborfield",RG41 4TL,477859,166915,51.395939,-0.882268,Wokingham
393747,The Blue Bell Inn,"13 Westgate, Nafferton, Driffield",YO25 4LJ,505435,458852,54.01492,-0.392421,East Riding of Yorkshire
358560,Salutation Inn,"Salutation Inn, 31 Chancery Lane, Nuneaton",CV10 0PB,432535,293255,52.536191,-1.521768,Nuneaton and Bedworth
209253,Jolly Anglers Inn,"Jolly Anglers Inn, Burneside, Kendal",LA9 6QS,350523,495646,54.353942,-2.762766,South Lakeland
412111,Sitwell Park Golf Club,"Sitwell Park Golf Club, Shrogswood Road, Broom, Rotherham",S60 4BY,445821,391240,53.415983,-1.312066,Rotherham
267344,Pub 31,"Pett Level Road, Winchelsea Beach, East Sussex",TN36 4ND,591383,116106,50.912677,0.721088,Rother
457905,Nethertown Bowling Club,5 Nethertown Broad Street Dunfermline Fife,KY12 7DS,309302,686941,56.066672,-3.458338,Fife
128308,Bronze Wine Bar And Restaurant,"291 - 293 Barking Road, Plaistow, London",E13 8EQ,540091,182089,51.520354,0.017775,Newham
232538,Pitcher And Piano,"1 - 5 Kings Road, Brighton, East Sussex",BN1 1NS,531150,103886,50.819677,-0.139532,Brighton and Hove
165458,Whitburn Golf Club Catering,"Whitburn Golf Club Ltd, Lizard Lane, South Shields, Tyne & Wear",NE34 7AF,440086,564179,54.970634,-1.375353,South Tyneside
508068,The Royal Oak,"East Street, Rhayader, Powys",LD6 5DS,297225,268075,52.301147,-3.508644,Powys
307352,The Bell Inn,"High Street, Moreton-In-Marsh, Gloucestershire",GL56 0AF,420457,232528,51.99083,-1.70349,Cotswold
193291,The Attic,"33-45 Parr Street, LIVERPOOL, Merseyside",L1 4JN,334974,389866,53.401601,-2.97949,Liverpool
242393,Kingfisher Tavern,"116 Kingfisher Drive, Eastbourne, East Sussex",BN23 7RT,562439,102951,50.803352,0.303896,Eastbourne
390984,The Acorn,"Hatfield Lane, Armthorpe, Doncaster",DN3 3HB,463100,405479,53.542172,-1.049273,Doncaster
476430,Houston Inn,"Houston Inn, North Street, Houston, Johnstone, Renfrewshire",PA6 7HF,240538,667025,55.869929,-4.550059,Renfrewshire
387790,West End Bowling Club,"West Street, Sowerby Bridge",HX6 3BB,405593,423165,53.704886,-1.916754,Calderdale
112502,Archers,"194-204 Main Road, Romford",RM2 5HA,552572,189819,51.586576,0.200866,Havering
200699,The Venue (Colne) Limited,"105 Albert Road, Colne, Lancashire",BB8 0BS,388412,439902,53.855223,-2.177651,Pendle
149186,Butchers Arms,"Middle Chare, Chester-Le-Street",DH3 3QD,427490,551315,54.855879,-1.573331,County Durham
269567,The Lamb Inn,"Swanley Village Road, Swanley, KENT",BR8 7NN,553193,169530,51.404115,0.201036,Sevenoaks
200908,Broughton & Dist Club Hall,"Broughton And District Club, Whittingham Lane, Preston",PR3 5DA,352675,435236,53.811235,-2.720176,Preston
205268,Farmer's Arms,"Farmers Arms, 160 Manchester Road, Pendlebury",M27 5TP,378284,401260,53.507565,-2.3289,Salford
246342,Cobham Bowls Club,"Bowling Club And Premises  Recreati, The Street, Cobham, Gravesend",DA12 3BZ,567059,168466,51.390636,0.399704,Gravesham
381775,Wortley Golf Club,"Wortley Golf Club, Hermit Hill Lane, Wortley",S35 7DF,431587,400581,53.500991,-1.525278,Barnsley
184171,Lord Nelson Hotel,"Out Lane, Croston, Leyland",PR26 9HJ,349045,418672,53.662037,-2.772579,Chorley
244045,Hersham Sports & Social Club,"128 Hersham Road, Hersham, Walton-On-Thames",KT12 5QL,511278,164754,51.370952,-0.402762,Elmbridge
357925,The Red Lion,"The Common, Baddesley Ensor, Atherstone, Warwickshire",CV9 2BT,427361,298368,52.582438,-1.597626,North Warwickshire
300039,The Fulford House,"Fulford House, Fulford Road, Hartcliffe, Bristol",BS13 0AD,358356,168022,51.40969,-2.600136,"Bristol, City of"
123281,Kazbar,"50 Clapham High Street, London",SW4 7UL,529746,175498,51.4636,-0.133661,Lambeth
292228,The Black Lion P H,"The Black Lion, Marlow Road, Well End, Bourne End",SL8 5PL,488774,188116,51.584919,-0.720095,Wycombe
316965,The Crown Inn,"The Crown Inn, The Batch, Churchill, Winscombe",BS25 5PP,344504,159421,51.331162,-2.797933,North Somerset
24616,Workers Club,"21-27 Church Street, King's Lynn, Norfolk",PE30 5EB,561818,319736,52.751014,0.396129,King's Lynn and West Norfolk
325292,The Cerdic,"Fore Street, Chard, Somerset",TA20 1QA,332442,108612,50.873041,-2.961511,South Somerset
314610,Lorna Doone & Cloud Farms,"Lorna Doone Farm, Malmsmead, Devon",EX35 6NU,279385,147742,51.216099,-3.728325,North Devon
288832,Union Inn,"17 Crimp Hill, Old Windsor, Windsor",SL4 2QY,497880,174042,51.456906,-0.592611,Windsor and Maidenhead
229441,New Inn,"The New Inn, Rowan Road, Tadley, Hampshire",RG26 3RG,460444,161502,51.349391,-1.133483,Basingstoke and Deane
207123,Fleetwood Hesketh Sports & Soc,"Fleetwood Hesketh Social Club, Fylde Road, Southport, Sefton Council",PR9 9XH,335921,419683,53.669675,-2.971365,Sefton
329791,Red Lion,56 East Street Ashburton Newton Abbot Devon,TQ13 7AX,275849,70008,50.516654,-3.752522,Teignbridge
279792,Club Caterers,"Wrotham Heath Golf Club, Seven Mile Lane, Wrotham Heath, Sevenoaks",TN15 8QZ,563813,157379,51.291984,0.347997,Tonbridge and Malling
54130,The Bricklayers Arms,"6 Welford Road, Creaton, Northamptonshire",NN6 8NH,470592,271764,52.339424,-0.965304,Daventry
170478,Roa Island Boating Club Ltd,"Roa Island Boating Club Ltd, Roa Island, Barrow-In-Furness, Cumbria",LA13 0QL,323214,464935,54.074603,-3.175003,Barrow-in-Furness
346677,The Coach & Horses,"Weatheroak Hill, Birmingham",B48 7EA,405916,274067,52.364616,-1.914542,Bromsgrove
500365,Yr Albert,"Albert Inn, 10 Rhes Segontiwm, Caernarfon, Gwynedd",LL55 2PN,248014,362580,53.138633,-4.273555,Gwynedd
261449,THE SNAKECATCHER PUB,"LYNDHURST ROAD, BROCKENHURST",SO42 7RL,430258,102195,50.818515,-1.571838,New Forest
333882,PILOT BOAT INN,"Pilot Boat Inn, Bridge Street, Lyme Regis, Dorset",DT7 3QA,334274,92128,50.725039,-2.932523,West Dorset
472288,"Dalziel Clubhouse,Dalziel Park","Hagen Drive, Motherwell, Lanarkshire",ML1 5RZ,278337,657851,55.79858,-3.942304,North Lanarkshire
150517,Kings Head Inn,"53 Front Street, Cockfield, Bishop Auckland",DL13 5DS,412456,524262,54.613355,-1.808653,County Durham
7848,Wormley Sports Club,"Church Lane, Wormley, Hertfordshire",EN10 7QE,535564,205782,51.734373,-0.038269,Broxbourne
186059,The Queens Head Inn,"Askham, Penrith",CA10 2PF,351432,523766,54.606712,-2.753413,Eden
341854,Gatecrasher,"182 Broad Street, Birmingham",B15 1DA,405892,286278,52.474403,-1.914684,Birmingham
480367,The Newmarket,48 Newmarket Street Ayr South Ayrshire,KA7 1LR,233689,621991,55.463408,-4.632098,South Ayrshire
407355,Wetherby And District Social Club,"Sandbeck Way, Wetherby, Leeds",LS22 7DN,440943,449110,53.936496,-1.377825,Leeds
468653,Station Bar,Wemyss Bay Station Shore Road Wemyss Bay,PA18 6AR,219403,668540,55.876068,-4.888389,Inverclyde
393976,The Viking Hotel,"North Marine Road, Flamborough, Bridlington",YO15 1BA,523472,471520,54.124718,-0.11215,East Riding of Yorkshire
296688,Bristol Bowling Club,"Bristol Bowling Club, Duckmoor Road, Ashton, Bristol",BS3 2BS,357209,171435,51.440282,-2.61704,"Bristol, City of"
513513,Sully Constitutional Club,"Sully Constitutional Club, 90 South Road, Sully, Penarth",CF64 5SL,315662,168112,51.405739,-3.213893,Vale of Glamorgan
233344,The Mad Hatter Inn,"7 Rock Street, Brighton",BN2 1NF,533054,103623,50.816879,-0.112599,Brighton and Hove
367797,The Valiant Inn,"3 Stanley Street, Leek",ST13 5HG,398355,356487,53.105582,-2.026024,Staffordshire Moorlands
324441,Five Dials Inn,"Goose Lane, Horton, Ilminster, Somerset",TA19 9QQ,332100,114923,50.929753,-2.967547,South Somerset
402853,Bingley Arms,"37 Church Lane, Bardsey, Leeds",LS17 9DR,436337,442963,53.881594,-1.448723,Leeds
393884,The New Inn,"31 Main Street, Tickton, Beverley",HU17 9SH,507023,442122,53.864289,-0.374052,East Riding of Yorkshire
176379,New Black Bull,"4/6 Mill Street, Padiham",BB12 8EX,379350,433979,53.801696,-2.315014,Burnley
370875,The Holly Bush Inn,"Hollybush Inn, Holly Bush Lane, Priors Marston, Southam",CV47 7RW,448984,257456,52.213152,-1.284497,Stratford-on-Avon
497677,Druid Inn,"Wrexham Road, Pontblyddyn, Flintshire",CH7 4HG,327276,361175,53.142737,-3.088677,Flintshire
392335,George and Dragon,"1 High Street, Aldbrough, Hull",HU11 4RP,524223,438567,53.828528,-0.114083,East Riding of Yorkshire
338989,The Horse And Groom,"Wilton Road, Salisbury, Wiltshire",SP2 7ES,413192,130512,51.073786,-1.813079,Wiltshire
358663,The Crew,"75-77 Queens Road, Nuneaton",CV11 5LA,435841,291762,52.522563,-1.473191,Nuneaton and Bedworth
359927,The Raven Inn Limited,"Raven Inn, 68 Broad Street, Brinklow",CV23 0LN,443542,279392,52.410813,-1.361308,Rugby
508081,The Stag Inn,"15 Great Oak Street, Llanidloes, Powys",SY18 6BU,295526,284485,52.448302,-3.538655,Powys
171189,Level One,"29-31 Market Street, Darwen",BB3 1PS,369170,422254,53.695809,-2.468398,Blackburn with Darwen
3045,Shortstown Village Hall,"Shortstown Village Hall, Shorts Avenue, Shortstown, Bedford",MK42 0FB,507168,246643,52.107753,-0.436586,Bedford
280489,Tonbridge Cricket Club,"Tonbridge Cricket Club, Welland Road, Tonbridge, Kent",TN10 3JF,558641,148194,51.210922,0.269816,Tonbridge and Malling
266899,Castle Inn,"Castle Hill, Bodiam, East Sussex",TN32 5UB,578250,125458,51.000901,0.539049,Rother
387641,The White Hart,"White Hart Fold, Todmorden",OL14 7BD,393623,424197,53.71415,-2.0981,Calderdale
45473,The Tavern,"8 High Street, Welwyn, Hertfordshire",AL6 9EQ,523089,216141,51.830332,-0.215153,Welwyn Hatfield
357859,The Anchor Inn,"118 Hurley Common, Hurley, Atherstone",CV9 2LR,424177,297045,52.570686,-1.644712,North Warwickshire
38088,Old Cannon Brewery,"86 Cannon Street, Bury St Edmunds, Suffolk",IP33 1JR,585417,264761,52.249781,0.714793,St Edmundsbury
69840,The Plough Inn Public House,"Main Street, Farnsfield, Nottinghamshire",NG22 8EA,464948,356513,53.101872,-1.031405,Newark and Sherwood
223813,The Tap,"Ferry Road, Eastham, Wirral, Merseyside",CH62 0AU,336401,381730,53.328646,-2.956391,Wirral
20704,The Cannon Public House,"Thirsk Road, Borehamwood                             Hertfordshire",WD6 5AY,519531,198170,51.669599,-0.272931,Hertsmere
218333,Shenanigans,"116 Bridge Street, Warrington",WA1 2RU,360697,387938,53.386811,-2.592392,Warrington
412833,Fox & Hounds Country Inn,"Main Street, Sinnington, York",YO62 6SQ,474440,485538,54.260113,-0.858747,Ryedale
367210,Ball Haye Green Working Mens Club,"Ball Haye Green, Leek",ST13 6BH,399022,357177,53.111768,-2.016063,Staffordshire Moorlands
509292,Maerdy Ex Servicemens Club,"50a Richard Street, Maerdy, Ferndale",CF43 4AU,297902,197858,51.670177,-3.477793,Rhondda Cynon Taf
51913,Royal Oak,"70 Leicester Road, Loughborough",LE11 2AG,453940,319356,52.769123,-1.201964,Charnwood
60189,The Kings Head,"6 Market Place, Ilkeston",DE7 5QA,446508,341783,52.971393,-1.308913,Erewash
147958,D & G Catering,"Darlington Mowden Park RFC, Darlington Arena, Neasham Road, DARLINGTON",DL2 1DL,430198,512609,54.507899,-1.53514,Darlington
386806,Middle Bar,"18 Fountain Street, Halifax",HX1 1LW,409186,425007,53.721401,-1.862272,Calderdale
147627,Westminster Boating Base,"136 Grosvenor Road, London",SW1V 3JY,529548,177921,51.485412,-0.135623,Westminster
162956,The Portland,"Station Road, Ashington, Northumberland",NE63 8HG,426536,587653,55.18246,-1.584832,Northumberland
45439,The Hollybush,"Hollybush Lane, Welwyn Garden City, Hertfordshire",AL7 4JU,524508,211072,51.784465,-0.196391,Welwyn Hatfield
6845,Norfolk Broads Yacht Club,"Norfolk Broads Yacht Club, The Avenue, Wroxham",NR12 8TS,630450,316809,52.699876,1.409275,Broadland
153527,Holly Hill Sports And Social Club,"2-3 Benson Terrace, Felling, Gateshead",NE10 9NS,427763,561805,54.950118,-1.568055,Gateshead
38829,Stevenage Club And Institute,"Stevenage & Institute Social Club, 31 High Street, Stevenage, Herts",SG1 3AU,523354,225248,51.912114,-0.208045,Stevenage
499426,Live Lounge,"Greenacres Holiday Park, Morfa Bychan, Porthmadog, Gwynedd",LL49 9YF,253901,337292,52.913129,-4.17416,Gwynedd
204888,Blind Pig,"204-206 Monton Road, Eccles",M30 9LJ,376700,399503,53.491722,-2.352651,Salford
155227,Acklam Park Club,Green Lane,TS5 7SL,448461,517571,54.551075,-1.252296,Middlesbrough
269588,The Padwell Arms,"Stone Street, Seal, KENT",TN15 0LQ,557087,155067,51.273096,0.250585,Sevenoaks
305835,The Longboat Hotel,"Longboat Hotel, Market Jew Street, Penzance, Cornwall",TR18 2HZ,147508,30597,50.121618,-5.533691,Cornwall
414477,The Arncliffe Arms,"Glaisdale, Whitby, North Yorkshire",YO21 2QL,478297,505503,54.438919,-0.794312,Scarborough
233408,The Reservoir (wet Sales),"1 Howard Road, Brighton, Brighton & Hove",BN2 9TP,532019,105186,50.831155,-0.126721,Brighton and Hove
170563,The Cross Bar,"Barrow Associated Football Sup, Wilkie Road, Barrow-In-Furness, Cumbria",LA14 5UQ,319217,470420,54.123267,-3.23754,Barrow-in-Furness
241414,Holybourne Cricket Club,"Holybourne Sports Field, London Road, Holybourne, Alton, GU34 4EW",GU34 4EW,473437,140847,51.162168,-0.951166,East Hampshire
511180,Mumbles Ale House,"2 Dunns Lane, Mumbles",SA3 4AF,261540,188029,51.574083,-3.999401,Swansea
358923,Golden Goose,"Icknield Street Drive, Redditch, Worcestershire",B98 0DD,406645,265994,52.292039,-1.903993,Redditch
49820,Great Northern,"Great Northern Hotel, 23 Station Street, Boston",PE21 8RL,532373,344088,52.977801,-0.029943,Boston
345375,The Eagle Tavern,"189 Mary Street, Sparkbrook, Birmingham",B12 9RN,407402,284357,52.457114,-1.892495,Birmingham
398053,New Walton Club,"243 Walton Street, Hull",HU3 6JR,507220,429293,53.748989,-0.375519,"Kingston upon Hull, City of"
143186,The Winchester House Club,"10 Lower Richmond Road, London",SW15 1JN,523930,175762,51.467258,-0.217248,Wandsworth
327226,Helen Browning At The Royal Oak,"Cues Lane, Bishopstone, Swindon",SN6 8PP,424495,183717,51.551805,-1.648112,Swindon
226361,THE LAMB,"THE LAMB INN, STEYNE STREET, BOGNOR REGIS",PO21 1TJ,493294,99046,50.783503,-0.677992,Arun
171791,Uncle Jack's,"Uncle Jacks, Branch Road, Lower Darwen",BB3 0PQ,368566,425115,53.721487,-2.477838,Blackburn with Darwen
248979,Royal Albert,"293 Battle Road, St Leonards-on-sea, East Sussex",TN37 7AP,579487,111789,50.877724,0.549918,Hastings
185110,Stanley Arms Hotel,"The Stanley Arms Hotel, Calderbridge, Cumbria",CA20 1DN,304118,506049,54.44077,-3.479921,Copeland
402557,Alwoodley Community Centre,"60 The Avenue, Alwoodley, Leeds",LS17 7NZ,429371,440440,53.859349,-1.554927,Leeds
443394,Newtyle Legion Hall,"33 Belmont Street, Newtyle, Blairgowrie",PH12 8UB,329879,741323,56.558618,-3.142429,Angus
37435,The Portland Arms,"The Portland Arms Ph, 63 Portland Street, St Albans, Hertfordshire",AL3 4RA,514172,207510,51.754655,-0.347333,St Albans
206548,White Lion,"133 Liverpool Road, Eccles",M30 0ND,376940,398544,53.483113,-2.348963,Salford
482510,The Bay Horse,"39 Bothwell Road, Hamilton, Lanarkshire",ML3 0AS,271769,656118,55.78132,-4.046185,South Lanarkshire
219373,Ormskirk Cricket Club,"Altys Lane, Ormskirk, Lancashire",L39 4RG,341572,407353,53.559528,-2.883527,West Lancashire
236117,The Joiners Arms,"Joiners Arms, Old Bridge Road, Bloxham, Oxfordshire",OX15 4LY,443102,235918,52.020007,-1.373299,Cherwell
308355,Ottery St Mary Cricket Club,"Strawberry Lane, Salston, Ottery St Mary",EX11 1RG,309125,94696,50.744732,-3.289368,East Devon
228709,The Red Lion P.H.,"68 Aylesbury Road, Bierton, Buckinghamshire",HP22 5BU,483414,215152,51.828759,-0.790978,Aylesbury Vale
167754,INN PLACE,"KNOLLSIDE CLOSE, SUNDERLAND",SR3 2UD,437744,552309,54.864146,-1.413488,Sunderland
407336,West End Tavern,"26 Abbey Road, Kirkstall, Leeds",LS5 3HS,426298,435750,53.817369,-1.602047,Leeds
247465,Royal Oak,"The Royal Oak Aldershot Road, Pirbright, Surrey",GU24 0DQ,494438,154320,51.280206,-0.647369,Guildford
51976,Sims Bar and Restaurant,"Long Furrow, East Goscote",LE7 3ZL,464164,313162,52.712325,-1.051658,Charnwood
202166,Dog Inn,"55 King Street, Whalley, Clitheroe, Lancashire",BB7 9SP,373316,436085,53.820349,-2.40681,Ribble Valley
259462,Victoria Inn,"6 Vicarage Road, Bradwell, Milton Keynes",MK13 9AQ,483162,239599,52.048563,-0.788731,Milton Keynes
406938,The New George,"2 - 4 Commercial Road, Kirkstall, Leeds",LS5 3AQ,426321,435483,53.814968,-1.60172,Leeds
80844,The Fox Inn,"A1 Southbound Great North Road, Colsterworth, Lincolnshire",NG33 5LN,493846,319581,52.765686,-0.610579,South Kesteven
444739,Dollar Bowling Club,"Tennis Club, 8 Murray Place, Dollar, Clackmannanshire",FK14 7HW,295681,697882,56.162151,-3.681312,Clackmannanshire
337359,Malmesbury Bowling Club,"Baskerville, Malmesbury, Wiltshire",SN16 9BS,393663,187091,51.582642,-2.09285,Wiltshire
171166,King William Hotel,"245 Chapeltown Road, Edgworth",BL7 9AN,372972,414412,53.625537,-2.410133,Blackburn with Darwen
504899,Johnston Country Club,"Caravan, 1, Florence Mews Church Road, Johnston, Pembrokeshire",SA62 3HE,193220,210096,51.751299,-4.997124,Pembrokeshire
290436,The Queens Head,"23 The Terrace, WOKINGHAM, Berkshire",RG40 1BP,480876,168791,51.412382,-0.838485,Wokingham
309563,Bishops Blaize,"Commercial Road, Exeter, Devon",EX2 4AB,291918,92144,50.71884,-3.532414,Exeter
103366,The White Hart,"290 Chase Road, LONDON",N14 6HA,529740,194473,51.634122,-0.126757,Enfield
374312,The Queslett,"Queslett Road, Streetly, Walsall, West Midlands",B74 2EY,407826,296466,52.565968,-1.885975,Walsall
420334,Malt Shovel,"Malt Shovel Inn, 417 Bradford Road, Carr Gate, Wakefield",WF2 0QW,431137,424115,53.712531,-1.52972,Wakefield
379897,Ye Olde Seven Stars,"13-14 Coventry Street, Kidderminster, Worcestershire",DY10 2BG,383321,276804,52.389013,-2.246502,Wyre Forest
381289,Sir George's Arms,"Sir Georges Arms, Hough Lane, Wombwell",S73 0LP,439141,402571,53.518371,-1.411157,Barnsley
208824,Coach & Horses Hotel,"Haverflatts Lane, Milnthorpe",LA7 7PS,349823,481607,54.227695,-2.771158,South Lakeland
458928,The Golf Tavern,11 South Road Cupar Fife,KY15 5JF,337600,713915,56.313513,-3.010268,Fife
374409,Walsall Rugby Club,"Delves Road, Walsall, West Midlands",WS1 3JY,401940,297031,52.571099,-1.972807,Walsall
325377,The Lord Nelson,"Rectory Lane, Norton Sub Hamdon, Stoke-Sub-Hamdon, Somerset",TA14 6SP,347180,115885,50.939975,-2.753144,South Somerset
513291,Old Penarthians Club,"Old Penarthians Rugby Club, St Marks Road, Penarth, Vale Of Glamorgan",CF64 3PF,317738,170470,51.427251,-3.184602,Vale of Glamorgan
119796,Coco Momo,"Public House, 25 Gloucester Road, LONDON, SW7 4PL",SW7 4PL,526182,179251,51.498116,-0.183599,Kensington and Chelsea
493277,PENDINE SOCIAL CLUB (CLUB-LICENSED),"93 Llanmiloe Estate, Llanmiloe, Carmarthen, Carmarthenshire",SA33 4UF,225020,208778,51.750293,-4.536289,Carmarthenshire
260173,The Cock Inn,"The Cock Inn (Ph), Church Lane, Headley",KT18 6LE,520471,154818,51.279768,-0.274113,Mole Valley
162377,Seaton Delaval Masonic Hall,"Seaton Delaval, Northumberland",NE25 0PT,429467,575833,55.076084,-1.540028,Northumberland
385095,The Brown Cow,"Ireland Bridge, Millgate, Bingley",BD16 2QX,410485,439344,53.850227,-1.842104,Bradford
42948,Windmill,"Airside, BAA Stansted Airport, Terminal Road North, Stansted",CM24 1QW,555515,223477,51.888161,0.258353,Uttlesford
495002,Albion Ale House Cyf,"Uppergate Street, Conwy",LL32 8RF,277946,377532,53.280668,-3.832093,Conwy
443401,Northern Vaults,"Northern Vaults, 9 North Esk Road, Montrose",DD10 8TJ,371495,758452,56.716866,-2.467309,Angus
355160,Duke Of York,"23 -25 Greenhill, Lichfield",WS13 6DY,412080,309587,52.683845,-1.822742,Lichfield
214914,The Railway Inn,"Railway Inn, 29 Commercial Brow, Hyde, Tameside",SK14 2JR,395415,395556,53.456726,-2.070516,Tameside
444873,Ochilview Bar & Lounge,"Alloa Road, Fishcross, Alloa, Clackmannanshire",FK10 3HT,289942,695181,56.136604,-3.772555,Clackmannanshire
400149,Honley Conservative Club,"Honley Conservative Association, 8 St Mary's Square, Honley, Holmfirth",HD9 6BA,413781,412081,53.605111,-1.793208,Kirklees
284650,The Railway Tavern,"17 Station Road, Hailsham, East Sussex",BN27 2BH,558987,109246,50.860873,0.25769,Wealden
478718,Trinity Bar,18 Duke Street Hawick Roxburghshire,TD9 9QB,350754,615220,55.428388,-2.7797,Scottish Borders
378997,The Anchor Inn,"Cotheridge Lane, Eckington, Pershore, Worcestershire",WR10 3BA,392345,241290,52.069933,-2.113089,Wychavon
294076,Trowbridge House Public House,"Trowbridge House Inn, 128 - 130 Coronation Avenue, Southdown, Bath",BA2 2JP,373246,163658,51.371344,-2.385727,Bath and North East Somerset
120842,Stanhope Arms (The),"Adam Court, 97 Gloucester Road, LONDON, SW7 4SS",SW7 4SS,526295,178822,51.494244,-0.182125,Kensington and Chelsea
221302,Sacred Heart Social Centre,"Stratford Street, Wigan",WN6 7AH,357227,406418,53.552628,-2.647083,Wigan
154700,Hartlepool Divers Club,"Harbour Walk, Hartlepool",TS24 0YQ,451683,533427,54.693237,-1.199698,Hartlepool
253702,The Bull,"2 High Street, Ditchling, East Sussex",BN6 8TA,532613,115275,50.921703,-0.114636,Lewes
14309,The Boat,"Gravel Path, Berkhamsted, Herts",HP4 2EF,499723,207848,51.76044,-0.556489,Dacorum
485391,Lodge St John No 272,"38 Bank Street, Mid Calder, Livingston, West Lothian",EH53 0AR,307550,667599,55.892622,-3.479833,West Lothian
464002,The Merchant,"134 West George Street, Glasgow",G2 2HG,258828,665581,55.862672,-4.257272,Glasgow City
396620,The Scotts Arms,"Main Street, Sicklinghall, North Yorkshire",LS22 4BD,436045,448381,53.930308,-1.452528,Harrogate
124357,The New Crown & Cushion,"The New Crown And Cushion Public Ho, 133-135 Westminster Bridge Road, London",SE1 7HR,531053,179482,51.499094,-0.113381,Lambeth
288947,Anchor PH,The Anchor Public House High Street Knaphill Woking Surrey,GU21 2PE,496528,158600,51.318321,-0.616257,Woking
406891,The Leodis,"Green Lane, Halton, Leeds",LS15 7QH,435709,433972,53.800831,-1.459317,Leeds
101741,Broomfield Club,"85 Hedge Lane, LONDON",N13 5SZ,531744,193192,51.622137,-0.0983,Enfield
491572,St. Peters Rugby Club,"St Peters Rfc, Minster Road, Roath, Cardiff,",CF23 5AS,320131,177662,51.492239,-3.151817,Cardiff
365794,Golden Valley Take Away,"24 Bull Lane, Wombourne",WV5 9DA,387404,293525,52.539444,-2.187145,South Staffordshire
126421,The  Alfred,"178 Sydenham Road, London",SE26 5RP,536163,171465,51.425835,-0.042895,Lewisham
190033,Social Bar,"University Of Cumbria, Bowerham Road, Lancaster, Lancashire",LA1 3JD,348511,460825,54.040805,-2.787743,Lancaster
198666,Druids Arms,"264 Ashton Road, Oldham, Oldham",OL8 1QN,392637,403616,53.52915,-2.112545,Oldham
77445,Gamston Lock,"Radcliffe Road, Gamston, Nottinghamshire",NG2 6NP,460568,337564,52.932072,-1.100363,Rushcliffe
359035,Old Sticky Wicket,"Matchborough Way, Redditch, Worcestershire",B98 0EP,407160,266414,52.295808,-1.896433,Redditch
193068,St Cecilias R C Parish Club,"Green Lane, LIVERPOOL, Merseyside",L13 7DT,338425,392297,53.423864,-2.928069,Liverpool
477182,Thorn Inn,"The Thorn Inn, 28 Thornhill, Johnstone, Renfrewshire",PA5 8JG,243532,662933,55.83418,-4.499901,Renfrewshire
494760,Tafarn y Cadwgan,"Cadwgan Inn, 10 Market Street, Aberaeron, Ceredigion",SA46 0AU,245771,262961,52.243171,-4.260338,Ceredigion
278102,The Crown Inn,"Romsey Road, Kings Somborne, Stockbridge, Hampshire",SO20 6PW,435988,131044,51.077597,-1.487673,Test Valley
200639,The Anchor Inn,"Salterforth Lane, Salterforth, Barnoldswick, Lancashire",BB18 5TT,388810,445341,53.904108,-2.171801,Pendle
385990,Brighouse Sports Club,"Russell Way, Brighouse",HD6 4LX,414643,423864,53.710995,-1.779615,Calderdale
8892,The Great Northern,"The Great Northern, 1-3 Station Road, Cambridge, Cambridgeshire",CB1 2JB,545787,257359,52.195189,0.131526,Cambridge
345526,The Plough And Harrow,"Slade Road, Sutton Four Oaks, Birmingham, Birmingham",B75 5PF,413154,299105,52.58959,-1.807283,Birmingham
501724,The Queens Head,"1 St James Street, Monmouth, Monmouthshire",NP25 3DL,351066,212884,51.812443,-2.711221,Monmouthshire
363388,Railway Inn,"77 - 80 Beatrice Street, Oswestry, Shropshire",SY11 1HL,329312,329977,52.862624,-3.051408,Shropshire
499468,Madryn Arms,"Chwilog, Pwllheli",LL53 6SH,243255,338446,52.920501,-4.332902,Gwynedd
228693,The Plough P.H.,"Church Street, Marsh Gibbon, Buckinghamshire",OX27 0HQ,464756,223108,51.90276,-1.060191,Aylesbury Vale
40787,The Crown,"51 High Street, Manningtree, Essex",CO11 1AH,610779,231886,51.945522,1.065449,Tendring
443569,Strathmore Rugby Club,"Inchmacoble Park, Forfar",DD8 1RL,344562,750389,56.642021,-2.905532,Angus
103644,Banker's Draft,"80 Eltham High Street, London",SE9 1BW,542767,174381,51.450423,0.053205,Greenwich
336953,Ivy Inn,"Heddington, Calne, Wiltshire",SN11 0PL,399976,166363,51.396311,-2.00173,Wiltshire
370907,The Nelson Club And Institute Ltd,"Nelson Social Club, Napton Road, Stockton, Southam",CV47 8JU,443858,263909,52.271594,-1.358679,Stratford-on-Avon
277875,Mottisfont Social Club,"Mottisfont Village Road, Mottisfont, Romsey, Hampshire",SO51 0LP,432465,126892,51.040473,-1.538318,Test Valley
336147,Corsham Cricket Club,"Station Road, Corsham, Wiltshire",SN13 9EU,387197,170178,51.430458,-2.185549,Wiltshire
191272,Durty Nellies,"125 London Road, LIVERPOOL, Merseyside",L3 8JA,335414,390757,53.409663,-2.973056,Liverpool
164499,Boldon Cricket Club,"Sunderland Road, East Boldon, Tyne & Wear",NE36 0NA,436968,561164,54.943782,-1.424444,South Tyneside
237290,Thatched Tavern,Church Road East Wittering Chichester West Sussex,PO20 8PU,479952,97943,50.775559,-0.867433,Chichester
16509,Buckurst Hill Baptist Church,"Baptist Church, 28 Palmerston Road, Buckhurst Hill, Essex",IG9 5LW,541408,193988,51.626946,0.041529,Epping Forest
391045,The Eagle and Child,"24 Main Street, Auckley, Doncaster",DN9 3HS,464873,401224,53.503708,-1.023402,Doncaster
288933,Zee Bar,"50 Queen Street, Maidenhead",SL6 1HY,488862,180999,51.52093,-0.720621,Windsor and Maidenhead
342091,Hall Green Conservative Club,"1243 Stratford Road, Hall Green, Birmingham",B28 9AA,410567,281690,52.433087,-1.846001,Birmingham
355326,Lichfield Health & Fitness Club,"Lorne House, Rotten Row, Lichfield",WS13 6JB,412239,309461,52.682708,-1.820394,Lichfield
156438,Bar Luga,"35 Grey Street, Newcastle upon Tyne",NE1 6EE,424967,564145,54.971302,-1.611521,Newcastle upon Tyne
169805,The Brewery House Hotel,"Brewery House Hotel, 16 Main Road, High Harrington, Workington",CA14 5PF,299576,525527,54.614883,-3.556557,Allerdale
387582,The New Inn,"Forest Hill Road, Sowood",HX4 9LB,407770,418002,53.658453,-1.883903,Calderdale
281587,Bentley's Cellar Bar,"Post Office Vaults, Post Office Vaults, Market Place, Wantage",OX12 8AT,439885,187896,51.588512,-1.425686,Vale of White Horse
367749,The Gardeners Arms,"Brown Lees Road, Biddulph",ST8 6PH,387651,355990,53.100963,-2.185888,Staffordshire Moorlands
374259,The Forge Tavern,"118 St Annes Road, Willenhall, Walsall, West Midlands",WV13 1DT,396609,299389,52.592288,-2.051504,Walsall
184365,Spinners Arms,"23 Church Street, Adlington",PR7 4EX,360055,413194,53.613761,-2.60527,Chorley
454258,WETHERSPOONS - The Turnhouse,Edinburgh Airport,EH12 9DN,314967,673656,55.948386,-3.363184,City of Edinburgh
157414,Lloyds No 1,"The Quayside Bar, 31-35 Close, Newcastle upon Tyne",NE1 3RN,425055,563706,54.967353,-1.610185,Newcastle upon Tyne
320318,Fever & Boutique,"11 Penel Orlieu, Bridgwater",TA6 3PF,329575,136939,51.127382,-3.007755,Sedgemoor
368981,New Penny,"Goldenhill Road, Fenton, Stoke-On-Trent",ST4 3DP,390774,344278,52.995747,-2.138906,Stoke-on-Trent
335148,The George Inn,"George Inn, 133 Reforne, Portland",DT5 2AP,368825,71975,50.546701,-2.441364,Weymouth and Portland
77204,Wheel Inn,"The Wheel Inn, 99 London Road, Oadby, Leicestershire",LE2 5DP,462767,300280,52.596698,-1.074781,Oadby and Wigston
26116,The Swan,"School Road, Little Totham, Maldon, Essex",CM9 8LB,588986,211647,51.77158,0.737713,Maldon
236608,DQSC Dellquay SC,Dell Quay Sailing Club Dell Quay Road Dell Quay Appledram Chichester West Sussex,PO20 7EE,483582,102870,50.819353,-0.814841,Chichester
60751,Plainsman,"The Plainsman, 149 Woodthorpe Drive, Woodthorpe, Nottinghamshire",NG3 5JL,458887,343345,52.984219,-1.124305,Gedling
152236,The Frog and Ferret,"4 Coulson Street, Spennymoor",DL16 7RS,426589,533776,54.698309,-1.588965,County Durham
313809,The Beer Engine,Newton St Cyres Devon,EX5 5AX,287878,98989,50.779606,-3.591707,Mid Devon
507531,Penybont Inn,"Heol Giedd, Cwmgiedd, Ystradgynlais, Swansea",SA9 1JY,278782,210507,51.780058,-3.75854,Powys
313275,The Redan Inn,"Frys Well, Chilcompton, Radstock",BA3 4HA,364955,151503,51.261601,-2.50363,Mendip
7326,Cheshunt Park Golf Club(Private),"The Old ClubHouse, Cheshunt Park, Park Lane, Cheshunt",EN7 6QD,534920,203817,51.716862,-0.04835,Broxbourne
293244,Livingstone Public House,"The Livingston Hotel, 24 - 25 Moorland Road, Oldfield Park, Bath",BA2 3PW,373708,164364,51.377714,-2.379142,Bath and North East Somerset
168032,MUSEUM VAULTS,"33, SILKSWORTH ROW, SUNDERLAND",SR1 3QJ,439001,557098,54.907083,-1.393259,Sunderland
37360,The Brickyard,"43-45 Verulam Road, St Albans, Hertfordshire",AL3 4DG,514576,207329,51.752945,-0.341542,St Albans
20426,Hart And Spool Public House,"148-150, Shenley Road, Borehamwood                             Hertfordshire",WD6 1EQ,519604,196789,51.657173,-0.272363,Hertsmere
65692,O2,"Percy Gee Building, University Of Leicester, University Road, Leicester",LE1 7RH,459412,303045,52.621929,-1.123824,Leicester
135880,The gregorian,"The Gregorian, 94a-96, Jamaica Road, London",SE16 4SQ,534334,179406,51.497641,-0.066171,Southwark
153389,Gateshead Arms,"569 Durham Road, Low Fell, Gateshead",NE9 5EY,425790,560116,54.935055,-1.599025,Gateshead
59376,The Wheatsheaf,"1 North Street, Titchmarsh, Northamptonshire",NN14 3DH,502505,279696,52.405681,-0.494624,East Northamptonshire
38045,MJS Hospitality,"Bunbury Arms, Ixworth Road, Great Barton, Suffolk",IP31 2NX,589972,267454,52.272411,0.782935,St Edmundsbury
165335,The Marsden Inn,"143 Marsden Lane, South Shields, Tyne & Wear",NE34 7HN,439347,565085,54.978824,-1.386773,South Tyneside
46356,The Family Tree,Derby Road Whatstandwell Matlock Derbyshire,DE4 5HG,433162,354372,53.085551,-1.506345,Amber Valley
442504,Stonehaven Indoor Bowling Club,"Cowie, Stonehaven, Aberdeenshire",AB39 2RD,387595,786387,56.968534,-2.205656,Aberdeenshire
449290,North Berwick Rugby Club,"Rugby Club, Dunbar Road, North Berwick, East Lothian",EH39 4DG,355948,684821,56.054205,-2.708886,East Lothian
151461,Sacriston Workmens Club,"Edward Street, Sacriston, Durham",DH7 6NW,423989,547089,54.818083,-1.628212,County Durham
353924,Long Bar,"61-62 Commercial Road, Hereford",HR1 2BP,351331,240189,52.057932,-2.71125,"Herefordshire, County of"
387881,Angel Inn,Hetton,BD23 6LT,396095,458785,54.025047,-2.061099,Craven
150597,Leadgate Cricket & Social Club,"Garden Place, Leadgate, Consett",DH8 6EA,412261,551726,54.860174,-1.810525,County Durham
227411,The Black Lion,"15 The Street, Appledore, Kent",TN26 2BU,595693,129346,51.030159,0.789442,Ashford
236256,Willow Catering,"Banbury Cricket Club, White Post Road, Bodicote, Banbury",OX15 4AA,446158,238073,52.039135,-1.328478,Cherwell
348860,Maudslay Hotel,"The Maudslay, Allesley Old Road, Coventry",CV5 8GB,430514,280193,52.418884,-1.552754,Coventry
472583,Golden Pheasant,"2 Stepps Road, Kirkintilloch, Glasgow, Lanarkshire",G66 5DH,266197,670791,55.911553,-4.142199,North Lanarkshire
508758,Cwmaman Hall and Institute,"Alice Place, Cwmaman, Aberdare",CF44 6NY,300379,199496,51.685345,-3.44244,Rhondda Cynon Taf
369697,Trent Country Club Ltd,"Birches Head Road, Stoke-on-Trent",ST2 8DD,390238,349227,53.040224,-2.147043,Stoke-on-Trent
477087,The Black Cart,"11 High Street, Johnstone, Renfrewshire",PA5 8JU,242998,663149,55.835954,-4.508543,Renfrewshire
442361,Rocksley Inn,"Stirling Village, Boddam, Aberdeenshire",AB42 3AP,412752,842224,57.470106,-1.789057,Aberdeenshire
160720,Cook and Barker Inn,"Newton-On-The-Moor, Northumberland",NE65 9JY,417077,605300,55.341454,-1.732308,Northumberland
213919,Carters Arms,"Carters Arms, 207 Stockport Road, Denton, Tameside",M34 6AQ,392739,394942,53.451177,-2.110802,Tameside
169179,Cockermouth Golf Club,"Dubwath, Cockermouth, Cumbria",CA13 9SG,316775,530678,54.664284,-3.291797,Allerdale
18542,The Bull Public House,"Bull Inn, 62 High Street, Newmarket, Suffolk",CB8 8LB,564487,263515,52.245229,0.407878,Forest Heath
326895,Brookhouse Farm,"Brook House, Middleleaze Drive, Middleleaze, Swindon",SN5 5TZ,410732,185289,51.566384,-1.84656,Swindon
447219,Catrine Bowling Club,"Catrine Bowling Club, 44 St. Cuthbert Street, Catrine, Mauchline",KA5 6SW,253416,626061,55.506258,-4.322531,East Ayrshire
117809,Bird,"Bird, 81 Holloway Road, Islington, London",N7 8LT,531370,184942,51.548086,-0.106783,Islington
371858,Duke Box,"5 Market Buildings, Market Street, Oakengates, Telford",TF2 6EJ,369693,310924,52.695141,-2.449871,Telford and Wrekin
478183,Niki's Bar,101 Balmoral Road Galashiels Selkirkshire,TD1 1JW,348549,635925,55.614193,-2.818391,Scottish Borders
103252,The Alfred Herring,"316-322 Green Lanes, LONDON",N13 5TT,531137,192821,51.618954,-0.107201,Enfield
10586,The Ewe & Lamb,"140 Luton Road, Dunstable, Bedfordshire",LU5 4LE,503582,222275,51.889417,-0.496284,Central Bedfordshire
197825,The Sidings,"The Sidings, Broom Lane, Levenshulme, Manchester",M19 2UB,387794,393797,53.440802,-2.185217,Manchester
386478,Hebden Bridge Bowling Club,"Lee Holme, Lee Mill Road, Hebden Bridge",HX7 7AE,399299,428476,53.752649,-2.012111,Calderdale
328653,Ring Of Bells,"Ring Of Bells, St James Street, Taunton, Somerset",TA1 1JS,322900,124865,51.01797,-3.100545,Taunton Deane
152359,The Moss Inn,"78 Front Street, Sunniside, Bishop Auckland",DL13 4LW,414053,538457,54.740887,-1.783248,County Durham
21783,The Axe and Compass,"High Street, Hemingford Abbots, Huntingdon",PE28 9AH,528317,271013,52.322234,-0.118711,Huntingdonshire
142048,Hurricane Room,"2A Lynwood Road, London",SW17 8SB,527873,171968,51.432285,-0.161884,Wandsworth
463809,The Bungo,"17 Nithsdale Road, Glasgow",G41 2AL,257831,662706,55.836568,-4.271681,Glasgow City
251334,Coburgs,"Royal Squadron, 70 Union Street, Ryde",PO33 2LN,459241,92849,50.732236,-1.161948,Isle of Wight
418553,The Golden Lion,"The Golden Lion, 69 Alderson Road, Sheffield",S2 4UB,435163,385799,53.367885,-1.473017,Sheffield
364051,The Windmill Inn,"Rowton, Halfway House, Shrewsbury, Shropshire",SY5 9EJ,336505,312479,52.706236,-2.941182,Shropshire
195471,Greenbrow Social,"Greenbrow Social Club Ltd, Greenbrow Road, Manchester",M23 2TU,380850,387249,53.381737,-2.289352,Manchester
302541,Camelford Conservative Club,"2 Market Place, Camelford, Cornwall",PL32 9PB,210624,83818,50.623244,-4.678693,Cornwall
12518,Ice,"St Helen's Lane, Colchester",CO1 1TY,599693,225373,51.891118,0.900602,Colchester
10578,The Crown,"East End, Houghton Regis, Dunstable",LU5 5LB,502276,224073,51.905818,-0.514722,Central Bedfordshire
48278,Waterfront Inn,"Canal Lane, West Stockwith, Nottinghamshire",DN10 4ET,478686,394710,53.443288,-0.816822,Bassetlaw
77683,Rancliffe Arms,"139 Loughborough Road, Bunny, Nottinghamshire",NG11 6QT,458423,329595,52.860681,-1.133699,Rushcliffe
407191,Trax,"148 Chapeltown Road, Chapeltown, Leeds",LS7 4EE,430949,435621,53.815964,-1.531419,Leeds
117505,The Red Lion,"92-94 Linkfield Road, Isleworth",TW7 6QJ,515871,176235,51.473215,-0.333059,Hounslow
187270,Horse and Jockey Inn,"18 Birchfield Road, Widnes, Cheshire",WA8 7SU,351356,386483,53.372945,-2.7326,Halton
122253,The Plough,"The Plough, Church Road, Worcester Park",KT4 7NT,521773,166480,51.384305,-0.251472,Kingston upon Thames
273430,Conservative Club,"100 St. Denys Road, Southampton",SO17 2FP,443447,114149,50.925168,-1.383207,Southampton
